[{"code":1414,"name":"Soirokatu","latitude":61.526548330001,"longitude":23.694491000025},{"code":5373,"name":"Terälahti","latitude":61.707018613405,"longitude":23.899575847176},{"code":1417,"name":"Lentävänniemen koulu","latitude":61.527269209765,"longitude":23.69866561688},{"code":5372,"name":"Terveystalo","latitude":61.704293353799,"longitude":23.898203917812},{"code":1416,"name":"Lentävänniemen koulu","latitude":61.527099369671,"longitude":23.699812322413},{"code":5371,"name":"Terveystalo","latitude":61.703874767257,"longitude":23.897962251088},{"code":5370,"name":"Uusi-Koverontie","latitude":61.699821681617,"longitude":23.891106590483},{"code":5377,"name":"Etelä","latitude":61.732319175174,"longitude":23.913598220098},{"code":5376,"name":"Terämaa","latitude":61.71098339548,"longitude":23.904531982779},{"code":5375,"name":"Terämaa","latitude":61.711070437276,"longitude":23.904409733782},{"code":5374,"name":"Terälahti","latitude":61.707589101246,"longitude":23.900180679907},{"code":5369,"name":"Uusi-Koverontie","latitude":61.699341148312,"longitude":23.890114743448},{"code":5367,"name":"Tuhkuri","latitude":61.694212782274,"longitude":23.8719663964},{"code":5368,"name":"Tuhkuri","latitude":61.694588069885,"longitude":23.873063046472},{"code":1820,"name":"Lannemäki","latitude":61.518273922786,"longitude":23.636752605554},{"code":534,"name":"Kastinsilta","latitude":61.50598882424,"longitude":23.773934616455},{"code":537,"name":"Paloasema","latitude":61.501266717924,"longitude":23.765308823465},{"code":1822,"name":"Ylöjärventie","latitude":61.519545915326,"longitude":23.645360249945},{"code":536,"name":"Paloasema","latitude":61.501088927214,"longitude":23.765007804539},{"code":1823,"name":"Ylöjärventie","latitude":61.519149807643,"longitude":23.644594287306},{"code":535,"name":"Kastinsilta","latitude":61.506344980027,"longitude":23.773803679398},{"code":5360,"name":"Teisko kko th","latitude":61.679205937753,"longitude":23.832147680662},{"code":5362,"name":"Maisansalo","latitude":61.69148148069,"longitude":23.825498854841},{"code":5361,"name":"Teisko kko th","latitude":61.678282482506,"longitude":23.831051600293},{"code":5364,"name":"Maisansalo th","latitude":61.685001821164,"longitude":23.847452765667},{"code":5363,"name":"Maisansalo th","latitude":61.683734366948,"longitude":23.843895700298},{"code":5366,"name":"Torpparinsuo","latitude":61.68758125407,"longitude":23.856907652171},{"code":5365,"name":"Torpparinsuo","latitude":61.687742672606,"longitude":23.85728826369},{"code":5356,"name":"Mäkelänmaa","latitude":61.668673815936,"longitude":23.826443888232},{"code":5357,"name":"Mäkelänmaa","latitude":61.667770631018,"longitude":23.825837491734},{"code":1,"name":"Keskustori M","latitude":61.497512017798,"longitude":23.761508383147},{"code":5358,"name":"Teiskola","latitude":61.674621482408,"longitude":23.830028571388},{"code":541,"name":"Tammelantori","latitude":61.502190663093,"longitude":23.779290319387},{"code":5359,"name":"Teiskola","latitude":61.673845504822,"longitude":23.829484530448},{"code":540,"name":"Tammelankatu","latitude":61.499851268917,"longitude":23.779870702772},{"code":543,"name":"Parantolankatu","latitude":61.507712502866,"longitude":23.7780795054},{"code":5,"name":"Keskustori P","latitude":61.497395996092,"longitude":23.761539236702},{"code":542,"name":"Tammelantori","latitude":61.50210183764,"longitude":23.779713001219},{"code":545,"name":"Tapionkatu","latitude":61.503987859748,"longitude":23.779329812299},{"code":544,"name":"Parantolankatu","latitude":61.507629307269,"longitude":23.777599352282},{"code":8,"name":"Keskustori N","latitude":61.497458716956,"longitude":23.761532729201},{"code":549,"name":"Koiratori","latitude":61.505390234425,"longitude":23.778244802753},{"code":7,"name":"Keskustori O","latitude":61.497342232485,"longitude":23.76154484811},{"code":5355,"name":"Toijakylä","latitude":61.662523467693,"longitude":23.822257907084},{"code":5354,"name":"Toijakylä","latitude":61.663381860554,"longitude":23.822868691347},{"code":5353,"name":"Poukka","latitude":61.659117626549,"longitude":23.820624571802},{"code":5352,"name":"Poukka","latitude":61.659622437801,"longitude":23.820704884005},{"code":5351,"name":"Taulaniemi th","latitude":61.652177164202,"longitude":23.820318361169},{"code":5350,"name":"Taulaniemi th","latitude":61.653049311377,"longitude":23.820360895833},{"code":511,"name":"Itsenäisyydenkatu 13","latitude":61.499075027048,"longitude":23.781228959394},{"code":5349,"name":"Ripovuoret","latitude":61.647589719318,"longitude":23.818467412128},{"code":510,"name":"Itsenäisyydenkatu 10","latitude":61.498868957657,"longitude":23.781250273651},{"code":5347,"name":"Ripojärvi","latitude":61.642781186053,"longitude":23.821397471463},{"code":5348,"name":"Ripovuoret","latitude":61.648379283867,"longitude":23.818820494447},{"code":5345,"name":"Kuusjärvi th","latitude":61.638033120971,"longitude":23.825773952144},{"code":5346,"name":"Ripojärvi","latitude":61.643361570149,"longitude":23.820865849172},{"code":519,"name":"Koskipuisto","latitude":61.497512253867,"longitude":23.766056122585},{"code":518,"name":"Koskipuisto","latitude":61.497558501285,"longitude":23.765355998813},{"code":516,"name":"Itsenäisyydenkatu 16","latitude":61.498921091691,"longitude":23.785360554987},{"code":513,"name":"Itsenäisyydenkatu 25","latitude":61.499089213001,"longitude":23.784873359117},{"code":5342,"name":"Koivuniemi","latitude":61.634393334253,"longitude":23.827600673382},{"code":5341,"name":"Aunessilta","latitude":61.632852587036,"longitude":23.836685944835},{"code":5344,"name":"Kuusjärvi th","latitude":61.639106083234,"longitude":23.824795504699},{"code":5343,"name":"Koivuniemi","latitude":61.633875633058,"longitude":23.828125621062},{"code":5340,"name":"Aunessilta","latitude":61.632418747546,"longitude":23.837730584846},{"code":5338,"name":"Kämmenniemi","latitude":61.629726652365,"longitude":23.838213210531},{"code":5339,"name":"Kämmenniemi","latitude":61.629641637151,"longitude":23.838033174823},{"code":520,"name":"Koskipuisto","latitude":61.497369854347,"longitude":23.765732647034},{"code":523,"name":"Linja-autoasema","latitude":61.493801462573,"longitude":23.770537898373},{"code":522,"name":"Linja-autoasema","latitude":61.493605319152,"longitude":23.770220026175},{"code":5334,"name":"Mikkolanniemi","latitude":61.626110959304,"longitude":23.846922876076},{"code":5335,"name":"Mikkolanniemi","latitude":61.626087168351,"longitude":23.848227313602},{"code":5336,"name":"Paavola th","latitude":61.628343207165,"longitude":23.839750970395},{"code":5337,"name":"Paavola th","latitude":61.627715096842,"longitude":23.840551059061},{"code":529,"name":"Klassillinen koulu","latitude":61.501125100595,"longitude":23.770698776071},{"code":528,"name":"Klassillinen koulu","latitude":61.500769332841,"longitude":23.771224348727},{"code":525,"name":"Viinikan liittymä","latitude":61.490468174904,"longitude":23.780352839337},{"code":524,"name":"Tampereen valtatie","latitude":61.491333779198,"longitude":23.772146667896},{"code":5127,"name":"TAYS","latitude":61.504968423112,"longitude":23.813400428962},{"code":5128,"name":"Koilliskeskus","latitude":61.496106575048,"longitude":23.888512026214},{"code":5125,"name":"Aitolahdentie 43","latitude":61.494028000562,"longitude":23.88244422807},{"code":5126,"name":"Aitolahdentie 36","latitude":61.494525210494,"longitude":23.883371493647},{"code":5332,"name":"Mutikonlahti","latitude":61.626651851639,"longitude":23.852075881978},{"code":5333,"name":"Mutikonlahti","latitude":61.626464575191,"longitude":23.853302590599},{"code":5330,"name":"Salama","latitude":61.626363378756,"longitude":23.862181600116},{"code":5129,"name":"Atanväylä 19","latitude":61.501649633208,"longitude":23.914268688165},{"code":5331,"name":"Salama","latitude":61.62600036078,"longitude":23.863973222555},{"code":5326,"name":"Iso-Kartano","latitude":61.615304314863,"longitude":23.876524895201},{"code":702,"name":"Rohdinkuja","latitude":61.505436669847,"longitude":23.765796328975},{"code":573,"name":"Rautatieasema","latitude":61.499381439281,"longitude":23.771781798281},{"code":5325,"name":"Nuorajärvi","latitude":61.608097922841,"longitude":23.875573078197},{"code":5130,"name":"Mäennotkonkatu","latitude":61.493671813768,"longitude":23.901475370202},{"code":703,"name":"Soukanlahdenkatu","latitude":61.506846841387,"longitude":23.76580010557},{"code":571,"name":"Viinikankatu 1","latitude":61.492355892051,"longitude":23.781942549816},{"code":5324,"name":"Nuorajärvi","latitude":61.607211571476,"longitude":23.87490814374},{"code":700,"name":"Villa Viola","latitude":61.503490853345,"longitude":23.765171574485},{"code":5323,"name":"Kolunkylä","latitude":61.602549690926,"longitude":23.872908324025},{"code":572,"name":"Viinikankatu 2","latitude":61.492608618796,"longitude":23.781615797829},{"code":701,"name":"Tampellan Esplanadi","latitude":61.505716753522,"longitude":23.765109313708},{"code":5135,"name":"Lusankatu 15","latitude":61.506564237426,"longitude":23.801394616904},{"code":5329,"name":"Värmälä","latitude":61.622284485146,"longitude":23.869160701367},{"code":5134,"name":"Itäinen aluetoimisto","latitude":61.499117032106,"longitude":23.915854035668},{"code":5328,"name":"Värmälä","latitude":61.622590761266,"longitude":23.868808981148},{"code":575,"name":"Rautatieasema","latitude":61.498413884516,"longitude":23.769232373039},{"code":704,"name":"Osmonmäki","latitude":61.50703794225,"longitude":23.779559205482},{"code":5327,"name":"Iso-Kartano","latitude":61.61467754148,"longitude":23.876606962313},{"code":5132,"name":"Aitoniitynkatu","latitude":61.493128816543,"longitude":23.907222279281},{"code":705,"name":"Naistenlahti","latitude":61.507580777188,"longitude":23.776307288034},{"code":5116,"name":"Irjalankatu","latitude":61.503220688253,"longitude":23.861544465748},{"code":5117,"name":"Teiskontie 61","latitude":61.503436691341,"longitude":23.861954966492},{"code":5118,"name":"Pienkodit","latitude":61.500333634324,"longitude":23.874257825038},{"code":5119,"name":"Pienkodit","latitude":61.500339429975,"longitude":23.875685496124},{"code":5320,"name":"Kannisto","latitude":61.600177500811,"longitude":23.871677103099},{"code":5321,"name":"Kolunkylä","latitude":61.602460351221,"longitude":23.872144282176},{"code":5322,"name":"Kolunkylä","latitude":61.603549858606,"longitude":23.873052516736},{"code":5313,"name":"Eerola","latitude":61.585086829121,"longitude":23.868808838818},{"code":5315,"name":"Urponmaa","latitude":61.592741383862,"longitude":23.870109098009},{"code":5120,"name":"Kirjavaisenkatu ","latitude":61.500256580261,"longitude":23.858798911237},{"code":5314,"name":"Eerola","latitude":61.585830526002,"longitude":23.868733745272},{"code":5317,"name":"Nokiniitty","latitude":61.596712268239,"longitude":23.870952338535},{"code":5316,"name":"Urponmaa","latitude":61.593111755184,"longitude":23.870203659512},{"code":5121,"name":"Kirjavaisenkatu 5","latitude":61.500711095748,"longitude":23.860594789973},{"code":5319,"name":"Kannisto","latitude":61.599717085056,"longitude":23.871572769842},{"code":5124,"name":"Koilliskeskus","latitude":61.497106576911,"longitude":23.886683296406},{"code":5318,"name":"Nokiniitty","latitude":61.596468617085,"longitude":23.870901530274},{"code":5123,"name":"Koilliskeskus","latitude":61.496057162041,"longitude":23.884777699656},{"code":1600,"name":"Kohmankatu","latitude":61.503775964361,"longitude":23.642906592634},{"code":5109,"name":"Irjalankatu 29","latitude":61.497170968227,"longitude":23.853905162952},{"code":5108,"name":"Irjalankatu","latitude":61.497016047679,"longitude":23.853808085752},{"code":5106,"name":"Irjalankatu","latitude":61.494992323541,"longitude":23.850179482941},{"code":5104,"name":"Kolarinkatu","latitude":61.497837567784,"longitude":23.846997606086},{"code":1606,"name":"Ikurintie","latitude":61.504060870219,"longitude":23.591068975718},{"code":1604,"name":"Kylväjäntie","latitude":61.504077327894,"longitude":23.599996268726},{"code":1605,"name":"Ikurintie","latitude":61.503939936231,"longitude":23.592698870742},{"code":1808,"name":"Pihtisulunkatu","latitude":61.503067734325,"longitude":23.574748701555},{"code":1602,"name":"Tesomankatu 24","latitude":61.504300743135,"longitude":23.604633800672},{"code":1809,"name":"Sandvik","latitude":61.506716275915,"longitude":23.573030951799},{"code":1603,"name":"Kylväjäntie","latitude":61.503901210671,"longitude":23.601218576488},{"code":1807,"name":"Pihtisulunkatu 1","latitude":61.503231326194,"longitude":23.574467524546},{"code":1806,"name":"Kolmihaarankatu 6","latitude":61.502954463532,"longitude":23.578821457891},{"code":1805,"name":"Kolmihaarankatu 7","latitude":61.502844164601,"longitude":23.578720813836},{"code":1804,"name":"Kolmihaarankatu 4","latitude":61.503239492931,"longitude":23.582662446709},{"code":1803,"name":"Kolmihaarankatu 5","latitude":61.50322052327,"longitude":23.584055568846},{"code":1802,"name":"Kalkun kehätie","latitude":61.504003400334,"longitude":23.590567742971},{"code":1801,"name":"Kalkun kehätie","latitude":61.5035186522,"longitude":23.587350044981},{"code":557,"name":"Kalevan puistotie 6","latitude":61.50423183154,"longitude":23.786240372083},{"code":5309,"name":"Vähäranta","latitude":61.572941523544,"longitude":23.88397397587},{"code":555,"name":"Tammelan koulu","latitude":61.501610243026,"longitude":23.786661514801},{"code":5308,"name":"Eerolansuora th","latitude":61.562998608849,"longitude":23.90523403498},{"code":5113,"name":"Hippoksenkatu","latitude":61.498712409556,"longitude":23.820486867933},{"code":556,"name":"Tammelan koulu","latitude":61.502300437581,"longitude":23.786984921868},{"code":5112,"name":"Hippoksenkatu","latitude":61.499211064758,"longitude":23.819533881556},{"code":5111,"name":"Linnahaankatu","latitude":61.498964680021,"longitude":23.85768902388},{"code":5306,"name":"Eerolansuora th","latitude":61.563337333267,"longitude":23.906706724375},{"code":5305,"name":"Eerolansuora th","latitude":61.562743315753,"longitude":23.908234692835},{"code":5110,"name":"Linnahaankatu","latitude":61.499105559896,"longitude":23.857956694165},{"code":5304,"name":"Kiviojantie","latitude":61.558627277866,"longitude":23.924798891868},{"code":5303,"name":"Kiviojantie","latitude":61.558228846842,"longitude":23.926645815037},{"code":552,"name":"Viola-koti","latitude":61.503291967841,"longitude":23.765117081342},{"code":550,"name":"Koiratori","latitude":61.505496602,"longitude":23.777425523509},{"code":1409,"name":"Lielahden koulu","latitude":61.520321373349,"longitude":23.670026921673},{"code":1203,"name":"Leppästentie","latitude":61.543008732943,"longitude":23.679941369685},{"code":1202,"name":"Leppästentie","latitude":61.54332491206,"longitude":23.680754504831},{"code":1205,"name":"Vasamantie","latitude":61.5447755216,"longitude":23.682048762544},{"code":1204,"name":"Vasamantie","latitude":61.545259910249,"longitude":23.682392287923},{"code":568,"name":"Sorsapuisto","latitude":61.49781077191,"longitude":23.784742344011},{"code":1201,"name":"Nuoralahti","latitude":61.540807767226,"longitude":23.67771126021},{"code":1200,"name":"Nuoralahti","latitude":61.540766645416,"longitude":23.677866216604},{"code":564,"name":"Yliopisto","latitude":61.494973630982,"longitude":23.779078799777},{"code":5100,"name":"Kuusimäenrinne","latitude":61.500264960359,"longitude":23.844778377558},{"code":565,"name":"Yliopisto","latitude":61.495144140178,"longitude":23.781353627836},{"code":566,"name":"Yliopisto","latitude":61.494931348539,"longitude":23.781469575809},{"code":567,"name":"Sorsapuisto","latitude":61.497896272589,"longitude":23.784940227472},{"code":5101,"name":"Irjalanaukio","latitude":61.495099132626,"longitude":23.849360706288},{"code":560,"name":"Yliopistonkatu","latitude":61.498541947855,"longitude":23.779573974159},{"code":1207,"name":"Lamminsyrjäntie","latitude":61.548243697361,"longitude":23.675089831689},{"code":561,"name":"Tampere-talo","latitude":61.496709686876,"longitude":23.779951468032},{"code":1206,"name":"Lamminsyrjäntie","latitude":61.548469745036,"longitude":23.674783268381},{"code":562,"name":"Tampere-talo","latitude":61.496370677339,"longitude":23.779667082703},{"code":1209,"name":"Siivikkalan koulu","latitude":61.549145713042,"longitude":23.668988226691},{"code":563,"name":"Yliopisto","latitude":61.494708785645,"longitude":23.777753270011},{"code":1208,"name":"Siivikkalan koulu","latitude":61.549459285994,"longitude":23.668220414766},{"code":4042,"name":"Hikivuorenkatu 22","latitude":61.465717642071,"longitude":23.894118177827},{"code":4041,"name":"Ojavainionkatu 5","latitude":61.463595288115,"longitude":23.894385975663},{"code":4040,"name":"Ojavainionkatu 4","latitude":61.464436727273,"longitude":23.894264595558},{"code":6017,"name":"Harjutie","latitude":61.536854297218,"longitude":23.603635789524},{"code":6016,"name":"Harjutie","latitude":61.537353981516,"longitude":23.603863436627},{"code":6019,"name":"Tornitie","latitude":61.539238219952,"longitude":23.602340080646},{"code":6018,"name":"Tornitie","latitude":61.53966252386,"longitude":23.602425420543},{"code":4043,"name":"Hikivuorenkatu","latitude":61.465934346064,"longitude":23.892200597863},{"code":3004,"name":"Koivistontie","latitude":61.472716066372,"longitude":23.774451358876},{"code":3005,"name":"Koivistontie","latitude":61.472666661575,"longitude":23.775019786888},{"code":3002,"name":"Kuokkamaantie","latitude":61.483008866324,"longitude":23.776353092298},{"code":3003,"name":"Kuokkamaantie","latitude":61.482813441697,"longitude":23.776824103123},{"code":3008,"name":"Veturihallit","latitude":61.463751551802,"longitude":23.76494199543},{"code":3006,"name":"Ekankulma","latitude":61.469027533616,"longitude":23.774570362737},{"code":3007,"name":"Ekankulma","latitude":61.469959234869,"longitude":23.774849422584},{"code":1625,"name":"Heinämiehentie","latitude":61.515244809668,"longitude":23.607669915422},{"code":1624,"name":"Lintuviidankatu","latitude":61.515225748083,"longitude":23.615212664766},{"code":1627,"name":"Maamiehentie","latitude":61.515266735537,"longitude":23.60025844657},{"code":1626,"name":"Heinämiehentie","latitude":61.515448853577,"longitude":23.606124476702},{"code":1629,"name":"Ikurintie 88","latitude":61.51484723516,"longitude":23.597126347624},{"code":3012,"name":"Tilkonmäenkatu","latitude":61.454886338959,"longitude":23.759256066068},{"code":3011,"name":"Säästäjänkatu","latitude":61.459549731156,"longitude":23.761605423445},{"code":1628,"name":"Maamiehentie","latitude":61.515348690699,"longitude":23.600663206962},{"code":3010,"name":"Säästäjänkatu","latitude":61.458648574891,"longitude":23.760723072577},{"code":6025,"name":"Ylöjärvi Matkatie","latitude":61.548687384469,"longitude":23.598011850512},{"code":6020,"name":"Erkontie","latitude":61.546035305588,"longitude":23.592881204914},{"code":1620,"name":"Suoniemenkatu","latitude":61.515918109025,"longitude":23.629015355667},{"code":6021,"name":"Erkontie","latitude":61.545587436231,"longitude":23.592930345288},{"code":1623,"name":"Lintuviidankatu","latitude":61.514993216662,"longitude":23.617062018361},{"code":1622,"name":"Myllypuronkatu","latitude":61.515611907963,"longitude":23.623538772157},{"code":3200,"name":"Muotialantie 64","latitude":61.477215182922,"longitude":23.820258859803},{"code":3201,"name":"Muotialantie 67","latitude":61.476938302897,"longitude":23.820324673933},{"code":4031,"name":"Juvankatu 13","latitude":61.470889378243,"longitude":23.870528048051},{"code":6009,"name":"Käyräkuja","latitude":61.528941122447,"longitude":23.602920326308},{"code":4030,"name":"Juvankatu 18","latitude":61.470388327339,"longitude":23.869827369827},{"code":6008,"name":"Käyräkuja","latitude":61.529170510431,"longitude":23.601672385798},{"code":4033,"name":"Yrjöläntie","latitude":61.468270941685,"longitude":23.869138934852},{"code":4032,"name":"Yrjöläntie","latitude":61.468361766939,"longitude":23.868791872436},{"code":6006,"name":"Kallenkuja","latitude":61.52734099649,"longitude":23.60719624782},{"code":4035,"name":"Vanha-Juva","latitude":61.464002970002,"longitude":23.877263797124},{"code":6005,"name":"Kaivokuja","latitude":61.524872938116,"longitude":23.614143364773},{"code":4034,"name":"Yrjöläntie","latitude":61.467345890002,"longitude":23.869138013826},{"code":1614,"name":"Sitarinkatu","latitude":61.509852288705,"longitude":23.625630543455},{"code":1613,"name":"Sitarinkatu","latitude":61.509867089051,"longitude":23.625140103382},{"code":1619,"name":"Suoniemenkatu","latitude":61.516015872683,"longitude":23.628609853647},{"code":1618,"name":"Pyydyspohjankatu","latitude":61.513499330924,"longitude":23.632906617654},{"code":3001,"name":"Kaartotie","latitude":61.4879719692,"longitude":23.779239579704},{"code":1617,"name":"Pyydyspohjankatu","latitude":61.512911636782,"longitude":23.632387358665},{"code":3000,"name":"Viinikan liittymä","latitude":61.48941302053,"longitude":23.779409854661},{"code":6014,"name":"Pohjanpolku","latitude":61.534597073497,"longitude":23.603167520461},{"code":4025,"name":"Kirsikatu","latitude":61.476525349196,"longitude":23.874262178369},{"code":6015,"name":"Pohjanpolku","latitude":61.534198893374,"longitude":23.602326668132},{"code":6012,"name":"Särkitie","latitude":61.53242848091,"longitude":23.600488213448},{"code":4027,"name":"Keskisenkatu","latitude":61.474031030397,"longitude":23.87240938972},{"code":6013,"name":"Särkitie","latitude":61.532300877394,"longitude":23.59969313076},{"code":6010,"name":"Tanhuatie","latitude":61.530229736472,"longitude":23.597323451984},{"code":1612,"name":"Tesoman koulu","latitude":61.507431531125,"longitude":23.627622722091},{"code":1611,"name":"Länsitori","latitude":61.505162866689,"longitude":23.629955271911},{"code":6011,"name":"Tanhuatie","latitude":61.530211863613,"longitude":23.596967948048},{"code":1610,"name":"Terveysasema","latitude":61.5053168581,"longitude":23.630370971899},{"code":4024,"name":"Juvankatu 4","latitude":61.476271814264,"longitude":23.873780583134},{"code":4022,"name":"Vilunen","latitude":61.478153759417,"longitude":23.8685212151},{"code":4021,"name":"Etu-Hankkionkatu","latitude":61.480179603674,"longitude":23.859772232287},{"code":4020,"name":"Etu-Hankkionkatu","latitude":61.479145736597,"longitude":23.861284982684},{"code":3028,"name":"Nekalan koulu","latitude":61.482593497956,"longitude":23.78918741864},{"code":3029,"name":"Nekalan koulu","latitude":61.482672680767,"longitude":23.789498564124},{"code":3026,"name":"Viinikan kirkko","latitude":61.48557631816,"longitude":23.785423404422},{"code":3027,"name":"Viinikan puisto","latitude":61.48473322551,"longitude":23.786994419393},{"code":3024,"name":"Ahlmanintie","latitude":61.487205742989,"longitude":23.783301445768},{"code":3025,"name":"Viinikan kirkko","latitude":61.48652315659,"longitude":23.784442742143},{"code":3034,"name":"Viinikankatu 42","latitude":61.477081517601,"longitude":23.782825868526},{"code":3033,"name":"Viinikankatu 49","latitude":61.480000884012,"longitude":23.782843597609},{"code":3032,"name":"Viinikankatu 40","latitude":61.48040636985,"longitude":23.782519985614},{"code":3699,"name":"Hervantakeskus","latitude":61.450630910329,"longitude":23.84961394076},{"code":3030,"name":"Kuokkamaantie 17","latitude":61.4821844544,"longitude":23.783651071707},{"code":1647,"name":"Heinämiehentie 6","latitude":61.51492446372,"longitude":23.606708231478},{"code":1643,"name":"Turvesuonkatu 10","latitude":61.520243485868,"longitude":23.657302820595},{"code":4018,"name":"Messukylän kirkko","latitude":61.48346507095,"longitude":23.850368759593},{"code":6000,"name":"Palstatie","latitude":61.525534044612,"longitude":23.623777753553},{"code":4019,"name":"Messukylän kirkko","latitude":61.483839955359,"longitude":23.849880037542},{"code":6001,"name":"Palstatie","latitude":61.525355482321,"longitude":23.623458544504},{"code":4016,"name":"Kivikirkko","latitude":61.484670466882,"longitude":23.845795083668},{"code":4017,"name":"Kivikirkko","latitude":61.484970345798,"longitude":23.845558079372},{"code":6002,"name":"Hatolantie","latitude":61.525834178245,"longitude":23.617405855687},{"code":6003,"name":"Hatolantie","latitude":61.525675750383,"longitude":23.617535964753},{"code":4014,"name":"Aakkula","latitude":61.486062518483,"longitude":23.839981097303},{"code":4015,"name":"Aakkula","latitude":61.486331572225,"longitude":23.83957809396},{"code":6004,"name":"Kaivokuja","latitude":61.525022908615,"longitude":23.614032990308},{"code":4011,"name":"Vuohensilta","latitude":61.486767880825,"longitude":23.825125586576},{"code":4010,"name":"Vuohensilta","latitude":61.486475699408,"longitude":23.825305645581},{"code":4013,"name":"Messukylänkatu","latitude":61.486467808378,"longitude":23.831524314055},{"code":4012,"name":"Messukylänkatu","latitude":61.486225041753,"longitude":23.834216461842},{"code":3017,"name":"Valkama","latitude":61.447743910468,"longitude":23.751255001612},{"code":3018,"name":"Kitinrinne","latitude":61.444088317208,"longitude":23.747114543419},{"code":3019,"name":"Kitinrinne","latitude":61.444645116919,"longitude":23.747487961666},{"code":3013,"name":"Automiehenkatu","latitude":61.455670150453,"longitude":23.760112950947},{"code":3014,"name":"Pähkinämäenkatu","latitude":61.450641930917,"longitude":23.75489356114},{"code":3016,"name":"Valkama","latitude":61.447826802371,"longitude":23.750964932637},{"code":3021,"name":"Multisillankatu","latitude":61.440870073139,"longitude":23.749626101754},{"code":3020,"name":"Multisillankatu","latitude":61.440625940531,"longitude":23.749557750424},{"code":3022,"name":"Multisilta","latitude":61.43374992626,"longitude":23.758000683911},{"code":1635,"name":"Ikuri","latitude":61.505077570649,"longitude":23.592574271081},{"code":4007,"name":"Tilhentie","latitude":61.491480388488,"longitude":23.810403547592},{"code":4008,"name":"Tilhentie","latitude":61.491331334258,"longitude":23.810174564652},{"code":1633,"name":"Äestäjäntie","latitude":61.508701460845,"longitude":23.593812947486},{"code":1631,"name":"Ikurinaukio","latitude":61.511775077754,"longitude":23.595318994558},{"code":4003,"name":"Takojankatu","latitude":61.494199701971,"longitude":23.801124518373},{"code":4004,"name":"Takojankatu","latitude":61.494070324452,"longitude":23.800968703845},{"code":4005,"name":"Kalevantie","latitude":61.492977035332,"longitude":23.805665611113},{"code":4006,"name":"Kalevantie","latitude":61.492836050067,"longitude":23.805398250995},{"code":3049,"name":"Isännänkatu","latitude":61.466267401718,"longitude":23.807221107789},{"code":3048,"name":"Isännänkatu","latitude":61.466071326919,"longitude":23.806903297074},{"code":3047,"name":"Haukisenkatu","latitude":61.466738073809,"longitude":23.800489562336},{"code":3046,"name":"Haukisenkatu","latitude":61.466667439382,"longitude":23.800158892363},{"code":4001,"name":"Tarkonpuisto","latitude":61.495176475178,"longitude":23.793770939308},{"code":4002,"name":"Kalevankangas","latitude":61.494955889403,"longitude":23.795466030134},{"code":4000,"name":"Tarkonpuisto","latitude":61.49501675987,"longitude":23.791945916766},{"code":3639,"name":"Vuoreskeskus","latitude":61.431818140695,"longitude":23.809639707521},{"code":2507,"name":"Hatanpään vt 42","latitude":61.482942886858,"longitude":23.762967261789},{"code":2506,"name":"Hatanpään vt 31","latitude":61.48302628089,"longitude":23.762319970602},{"code":3637,"name":"Näyttämönkatu","latitude":61.442733023106,"longitude":23.862679591104},{"code":1662,"name":"Rauhantie","latitude":61.520908406908,"longitude":23.625596651686},{"code":2505,"name":"Verotalo","latitude":61.486357078083,"longitude":23.766801509337},{"code":1663,"name":"Rauhantie","latitude":61.521184113972,"longitude":23.625848839425},{"code":3638,"name":"Vuoreskeskus","latitude":61.431739449202,"longitude":23.809347699335},{"code":1664,"name":"Lamminpään koulu","latitude":61.518764194383,"longitude":23.625697735018},{"code":1665,"name":"Lamminpään koulu","latitude":61.518201877926,"longitude":23.626567433843},{"code":2509,"name":"Vihilahti","latitude":61.479626546622,"longitude":23.763631254826},{"code":1666,"name":"Runkokatu","latitude":61.517186883907,"longitude":23.607025492265},{"code":2508,"name":"Vihilahti","latitude":61.480563308095,"longitude":23.762989228297},{"code":1667,"name":"Runkokatu","latitude":61.516623085301,"longitude":23.606748518365},{"code":3631,"name":"Mäyränmäki","latitude":61.432871688657,"longitude":23.830122616198},{"code":1668,"name":"Haukiluoma","latitude":61.518606500892,"longitude":23.606682515154},{"code":3632,"name":"Mäyränmäki","latitude":61.432822494188,"longitude":23.830708964267},{"code":3052,"name":"Multiojankatu","latitude":61.436689692174,"longitude":23.749836536809},{"code":3050,"name":"Veisu","latitude":61.468742275324,"longitude":23.812036641911},{"code":2503,"name":"Viinikanlahti","latitude":61.488455008735,"longitude":23.770810681036},{"code":3635,"name":"Vuoreksen koulu","latitude":61.430540091839,"longitude":23.815658337215},{"code":3055,"name":"Emännänkatu","latitude":61.471171762127,"longitude":23.812614227415},{"code":2502,"name":"Hatanpään vt 25","latitude":61.485985149221,"longitude":23.764754967834},{"code":3636,"name":"Vuoreksen koulu","latitude":61.430441112867,"longitude":23.81564966789},{"code":3056,"name":"Vuoreksenkatu","latitude":61.434131292807,"longitude":23.751397070856},{"code":3053,"name":"Vuoreksenkatu","latitude":61.434314948682,"longitude":23.751565478703},{"code":2501,"name":"Hatanpään vt 24","latitude":61.491003775714,"longitude":23.771485716166},{"code":3054,"name":"Emännänkatu","latitude":61.471178315377,"longitude":23.812895183147},{"code":2500,"name":"Verotalo","latitude":61.487808910331,"longitude":23.769318417062},{"code":3036,"name":"Ammattikoulu","latitude":61.472444819285,"longitude":23.78386799011},{"code":504,"name":"Rautatieasema","latitude":61.49837368935,"longitude":23.770946696228},{"code":3035,"name":"Viinikankatu 57","latitude":61.476828345563,"longitude":23.783133708002},{"code":505,"name":"Rautatieasema","latitude":61.498518449483,"longitude":23.770612210267},{"code":3038,"name":"Huikarinkatu","latitude":61.470732046959,"longitude":23.787405703116},{"code":502,"name":"Koskipuisto","latitude":61.498062278824,"longitude":23.766525164104},{"code":3037,"name":"Ammattikoulu","latitude":61.473631454593,"longitude":23.783914493086},{"code":503,"name":"Koskipuisto","latitude":61.498223097531,"longitude":23.766489654794},{"code":508,"name":"Rautatieasema","latitude":61.498661859419,"longitude":23.772495410893},{"code":509,"name":"Itsenäisyydenkatu 3","latitude":61.499011073783,"longitude":23.777382993218},{"code":3039,"name":"Koivistontie 35","latitude":61.470991268304,"longitude":23.785069506417},{"code":3650,"name":"Korkinmäenkatu","latitude":61.474368565176,"longitude":23.825281415386},{"code":500,"name":"Koskipuisto","latitude":61.49794102425,"longitude":23.765579334064},{"code":501,"name":"Koskipuisto","latitude":61.498211647214,"longitude":23.765250517518},{"code":2516,"name":"Talvitie","latitude":61.470054639211,"longitude":23.748271751484},{"code":3648,"name":"Västinginmäki","latitude":61.452746225669,"longitude":23.799767412563},{"code":3649,"name":"Tuotekatu","latitude":61.458405659291,"longitude":23.786855529339},{"code":2515,"name":"Kannistonkatu","latitude":61.471140074299,"longitude":23.754993130078},{"code":2517,"name":"Talvitie","latitude":61.469914324773,"longitude":23.750670940629},{"code":2519,"name":"Leirintäkatu","latitude":61.470120579057,"longitude":23.741636933292},{"code":3640,"name":"Rimmi","latitude":61.434252419184,"longitude":23.807740487787},{"code":3641,"name":"Rimmi","latitude":61.43426076607,"longitude":23.808095957617},{"code":3040,"name":"Mahlankatu","latitude":61.470999136439,"longitude":23.791114581896},{"code":2510,"name":"Hatanpään koulu","latitude":61.47504521513,"longitude":23.763975772351},{"code":3642,"name":"Hervantakeskus","latitude":61.450622235577,"longitude":23.84923953264},{"code":3041,"name":"Mahlankatu","latitude":61.471241962583,"longitude":23.792272503354},{"code":3643,"name":"Virolainen","latitude":61.437634588563,"longitude":23.812177194337},{"code":2512,"name":"Rantaperkiö","latitude":61.473452850403,"longitude":23.759709609435},{"code":3644,"name":"Virolainen","latitude":61.438499941894,"longitude":23.811544842118},{"code":3042,"name":"Valkama","latitude":61.447498523725,"longitude":23.749629492433},{"code":2511,"name":"Hatanpään koulu","latitude":61.475271352114,"longitude":23.764421742092},{"code":3043,"name":"Valkama","latitude":61.447639176444,"longitude":23.749877504311},{"code":3646,"name":"Eero Roineen katu","latitude":61.44297028143,"longitude":23.872597715654},{"code":3044,"name":"Nirvankatu 18","latitude":61.468508849253,"longitude":23.792535071943},{"code":2514,"name":"Kannistonkatu","latitude":61.471402574279,"longitude":23.75507847381},{"code":3647,"name":"Västinginmäki","latitude":61.45315456011,"longitude":23.799181308241},{"code":2513,"name":"Rantaperkiö","latitude":61.472986607236,"longitude":23.758988216774},{"code":3068,"name":"Jokipohjantie 18","latitude":61.481706551273,"longitude":23.797674642583},{"code":3070,"name":"Liikennelaitos","latitude":61.479016028621,"longitude":23.797838587983},{"code":2529,"name":"Hatanpään hovi","latitude":61.476898802326,"longitude":23.767144817168},{"code":2528,"name":"Hatanpään hovi","latitude":61.476820314721,"longitude":23.764974493072},{"code":2527,"name":"Hatanpään sairaala","latitude":61.484280230156,"longitude":23.757643757403},{"code":2526,"name":"Sarvis","latitude":61.486217517981,"longitude":23.762438980798},{"code":2525,"name":"Sarvis","latitude":61.486040284182,"longitude":23.761405430728},{"code":3077,"name":"Siirtolapuutarha","latitude":61.477271561211,"longitude":23.809229451301},{"code":2524,"name":"Valmetinkatu","latitude":61.470619891903,"longitude":23.726131703757},{"code":3078,"name":"Muotialantie ","latitude":61.477051114344,"longitude":23.815543163345},{"code":3075,"name":"Muotialantie 23","latitude":61.477220955512,"longitude":23.8043894779},{"code":3076,"name":"Siirtolapuutarha","latitude":61.477175822777,"longitude":23.808976334742},{"code":2521,"name":"Toivonkatu","latitude":61.470479065785,"longitude":23.733732160201},{"code":3653,"name":"Laulunmaankatu","latitude":61.476827460986,"longitude":23.826739718929},{"code":3073,"name":"Jokipohjantie 53","latitude":61.477541224284,"longitude":23.79814045731},{"code":2520,"name":"Toivonkatu","latitude":61.470614722658,"longitude":23.732647692428},{"code":3074,"name":"Muotialantie 38","latitude":61.477121619461,"longitude":23.805132072346},{"code":3651,"name":"Korkinmäenkatu","latitude":61.474219752374,"longitude":23.823907024944},{"code":3071,"name":"Liikennelaitos","latitude":61.478967555243,"longitude":23.798068951156},{"code":4903,"name":"Romsinlahti","latitude":61.513020831034,"longitude":23.781515536818},{"code":3072,"name":"Jokipohjantie 26","latitude":61.477561934501,"longitude":23.79787539825},{"code":1677,"name":"Ristaniitynkatu","latitude":61.497984609,"longitude":23.592336094703},{"code":4910,"name":"Sammon valtatie 70","latitude":61.487243196826,"longitude":23.878727900486},{"code":1675,"name":"Pohjanmaantie","latitude":61.507648115667,"longitude":23.693642068963},{"code":4912,"name":"Linnainmaankatu","latitude":61.48531397956,"longitude":23.88940263677},{"code":4911,"name":"Kässälän silta","latitude":61.488164014781,"longitude":23.876193457264},{"code":2538,"name":"Metsolankatu 32","latitude":61.464874793094,"longitude":23.75063320967},{"code":1674,"name":"Virontörmänkatu 8","latitude":61.508189520768,"longitude":23.605694532457},{"code":2537,"name":"Lentokentänkatu 11","latitude":61.467232224254,"longitude":23.753447584385},{"code":1671,"name":"Peurankatu","latitude":61.506851652645,"longitude":23.683782164867},{"code":1672,"name":"Lamminpään hautausmaa","latitude":61.522510357044,"longitude":23.625723713072},{"code":2539,"name":"Metsolankatu","latitude":61.464819675433,"longitude":23.750958090496},{"code":3064,"name":"Nekalantie 38","latitude":61.487202730972,"longitude":23.790027123393},{"code":2534,"name":"Lentokentänkatu ","latitude":61.468196031919,"longitude":23.755825440278},{"code":3065,"name":"Nekalantie 55","latitude":61.485381463679,"longitude":23.795831505296},{"code":2533,"name":"Lentokentänkatu 7","latitude":61.470691604456,"longitude":23.759921684961},{"code":3066,"name":"Nekalantie 54","latitude":61.484966239859,"longitude":23.796888614052},{"code":2536,"name":"Härmälän kirkko","latitude":61.466935735485,"longitude":23.75231449657},{"code":3067,"name":"Riihitie","latitude":61.483899900748,"longitude":23.79851976871},{"code":2535,"name":"Lentokentänkatu 9","latitude":61.468464656905,"longitude":23.757299465707},{"code":2530,"name":"Rantaperkiö","latitude":61.473274310653,"longitude":23.761643515444},{"code":4914,"name":"Pukinekatu","latitude":61.48339280091,"longitude":23.903625079422},{"code":3060,"name":"Korkinmäki","latitude":61.473104707775,"longitude":23.83194457997},{"code":3061,"name":"Lokintaival","latitude":61.488875839748,"longitude":23.785946947536},{"code":4913,"name":"Linnainmaankatu","latitude":61.485724769031,"longitude":23.887727383274},{"code":3062,"name":"Nekalantie 8","latitude":61.488407418518,"longitude":23.78550685928},{"code":2532,"name":"Kojolankatu","latitude":61.470895002783,"longitude":23.759787867906},{"code":3063,"name":"Nekalantie 29","latitude":61.487689576053,"longitude":23.788962476469},{"code":2531,"name":"Rantaperkiö","latitude":61.47318912271,"longitude":23.762215686932},{"code":4915,"name":"Pukinekatu","latitude":61.483208734614,"longitude":23.906592194283},{"code":3723,"name":"Orivedenkatu","latitude":61.455389448384,"longitude":23.846449570359},{"code":3088,"name":"Uotilantie","latitude":61.480152102782,"longitude":23.81603371191},{"code":3721,"name":"Kanjoninkatu","latitude":61.457343745258,"longitude":23.845519955467},{"code":3086,"name":"Kuoppamäentie 44","latitude":61.480020690571,"longitude":23.809267073882},{"code":3085,"name":"Siirtolapuutarha","latitude":61.480152783661,"longitude":23.810305324233},{"code":3083,"name":"Kuoppamäentie 29","latitude":61.480020336853,"longitude":23.804271275405},{"code":3082,"name":"Seurakuntatalo","latitude":61.479830425711,"longitude":23.800008618006},{"code":1576,"name":"Vanha kirkkotie 24","latitude":61.501805416639,"longitude":23.629303952236},{"code":3080,"name":"Nekalantie 110","latitude":61.478951232101,"longitude":23.830392133909},{"code":1579,"name":"Kokkolankatu 2","latitude":61.502469283307,"longitude":23.63363045448},{"code":3728,"name":"Hervannan valtaväylä","latitude":61.457877456775,"longitude":23.846460636891},{"code":1572,"name":"Korvenkatu 57","latitude":61.499481031778,"longitude":23.623578939379},{"code":3727,"name":"Kauhakorvenkatu 5","latitude":61.451898045123,"longitude":23.871064394772},{"code":1574,"name":"Vanha Kirkkotie 10","latitude":61.499177615221,"longitude":23.629099944074},{"code":1580,"name":"Ristaniitynkatu","latitude":61.498135994188,"longitude":23.591924812032},{"code":1582,"name":"Ristaniitynkatu 13","latitude":61.497195975569,"longitude":23.5877427352},{"code":3925,"name":"Polunmäenkatu","latitude":61.453141389114,"longitude":23.895164502528},{"code":3926,"name":"Polunmäenkatu","latitude":61.453373468462,"longitude":23.893527658728},{"code":3923,"name":"Solkimäki","latitude":61.453075061382,"longitude":23.889898357082},{"code":3924,"name":"Solkimäki","latitude":61.453203493321,"longitude":23.890016892101},{"code":3079,"name":"Muotialantie 43","latitude":61.477153369283,"longitude":23.815307354701},{"code":3098,"name":"Steiner-koulu","latitude":61.478269792471,"longitude":23.826198384857},{"code":3710,"name":"Työpajanraitti","latitude":61.457483058783,"longitude":23.865549356404},{"code":3097,"name":"Steiner-koulu","latitude":61.47823462621,"longitude":23.825075179751},{"code":3713,"name":"Itä-Hervanta","latitude":61.460229905662,"longitude":23.868613983637},{"code":3712,"name":"Hepolamminkatu","latitude":61.459736870177,"longitude":23.863971379884},{"code":3099,"name":"Ahlmanintie","latitude":61.482438157445,"longitude":23.790217706379},{"code":3094,"name":"Santamatinkatu","latitude":61.472306383853,"longitude":23.801250885938},{"code":3093,"name":"Santamatinkatu","latitude":61.472376329329,"longitude":23.800023195934},{"code":3096,"name":"Ahlman","latitude":61.472947207275,"longitude":23.806743104112},{"code":3095,"name":"Ahlman","latitude":61.473032053307,"longitude":23.805382473002},{"code":3719,"name":"Lindforsinkatu","latitude":61.447580277445,"longitude":23.836188680593},{"code":3718,"name":"Kanjoninkatu","latitude":61.457274079675,"longitude":23.845226718472},{"code":1589,"name":"Petsankatu","latitude":61.49411816284,"longitude":23.575696129753},{"code":3092,"name":"Ammattikoulu","latitude":61.471000906059,"longitude":23.782815365772},{"code":1588,"name":"Kalkun viertotie 20","latitude":61.494179453693,"longitude":23.575275942806},{"code":1587,"name":"Kalkun viertotie","latitude":61.494282081516,"longitude":23.579718460772},{"code":3091,"name":"Ammattikoulu","latitude":61.471147457603,"longitude":23.782556137212},{"code":3715,"name":"Hermiankatu 7","latitude":61.448224344271,"longitude":23.862070931641},{"code":1586,"name":"Kalkun viertotie 17","latitude":61.494519279433,"longitude":23.578790341653},{"code":3714,"name":"Hermiankatu 22","latitude":61.449672127449,"longitude":23.869561593311},{"code":1585,"name":"Pitkäniemenkatu","latitude":61.49575402958,"longitude":23.585401371125},{"code":1584,"name":"Pitkäniemenkatu","latitude":61.495719634043,"longitude":23.585104429376},{"code":3717,"name":"Ahvenisraitti","latitude":61.449786883196,"longitude":23.843807704049},{"code":1583,"name":"Ristaniitynkatu 10","latitude":61.496889104586,"longitude":23.587325334285},{"code":3716,"name":"Ahvenisraitti","latitude":61.449616646369,"longitude":23.843824931501},{"code":1592,"name":"Kalkku","latitude":61.494747054838,"longitude":23.56963206996},{"code":1593,"name":"Tohlopinranta","latitude":61.507994003192,"longitude":23.663243975896},{"code":1595,"name":"Tohlopinjärvi","latitude":61.506645144592,"longitude":23.656583469561},{"code":1594,"name":"Tohlopinranta 23","latitude":61.507890651764,"longitude":23.661957889194},{"code":1597,"name":"Yleisradio","latitude":61.505310107296,"longitude":23.651595019771},{"code":1596,"name":"Tohlopinjärvi","latitude":61.50711354411,"longitude":23.65773625881},{"code":1599,"name":"Kohmankatu","latitude":61.503453166004,"longitude":23.640742133238},{"code":1598,"name":"Yleisradio","latitude":61.505455030604,"longitude":23.651278661254},{"code":4097,"name":"Juvankatu 39","latitude":61.463381969903,"longitude":23.886617483593},{"code":4096,"name":"Hikivuori","latitude":61.466873866865,"longitude":23.885367532024},{"code":4099,"name":"Maustekatu","latitude":61.464726015488,"longitude":23.909346612627},{"code":3949,"name":"TAMK","latitude":61.50274007472,"longitude":23.805302428613},{"code":3940,"name":"Rusko","latitude":61.453122185213,"longitude":23.900626834389},{"code":3943,"name":"Palvaanniemi","latitude":61.486655967421,"longitude":23.826489524982},{"code":3944,"name":"Kissanmaa","latitude":61.498121285138,"longitude":23.815172691678},{"code":4091,"name":"Vaunukatu","latitude":61.479657323196,"longitude":23.921875101349},{"code":3941,"name":"Rusko","latitude":61.453018502778,"longitude":23.900411978125},{"code":3942,"name":"Palvaanniemi","latitude":61.485631500989,"longitude":23.826462444596},{"code":3731,"name":"Vaajakatu","latitude":61.45337181907,"longitude":23.850462911655},{"code":3730,"name":"Vaajakatu","latitude":61.45323121245,"longitude":23.84982032144},{"code":3733,"name":"Hervannan valtaväylä","latitude":61.452265051968,"longitude":23.851925708605},{"code":3732,"name":"Kylmäsuonkatu","latitude":61.451250518577,"longitude":23.852328343269},{"code":3735,"name":"TTY","latitude":61.449749634059,"longitude":23.854224766039},{"code":3734,"name":"TTY","latitude":61.449002342874,"longitude":23.853756051203},{"code":3737,"name":"Tieteenkatu 7","latitude":61.454865118174,"longitude":23.850180707893},{"code":3736,"name":"Tieteenkatu 8","latitude":61.455009508982,"longitude":23.849434236553},{"code":3935,"name":"Niittyhaankatu","latitude":61.453088232526,"longitude":23.88379863329},{"code":3937,"name":"Kauhakorvenkatu 2","latitude":61.451995618205,"longitude":23.872574491128},{"code":4078,"name":"Kaukajärvi","latitude":61.470745530287,"longitude":23.889336323671},{"code":4079,"name":"Keskisenkatu","latitude":61.473269821435,"longitude":23.874851672045},{"code":4076,"name":"Haiharankatu","latitude":61.47195985855,"longitude":23.883920351202},{"code":4077,"name":"Haiharankatu","latitude":61.471985062748,"longitude":23.884237003394},{"code":4074,"name":"Keskisenkatu 10","latitude":61.472768804092,"longitude":23.876892215611},{"code":4072,"name":"Keskisenkatu 6","latitude":61.473228547763,"longitude":23.873053249758},{"code":4073,"name":"Keskisenkatu 13","latitude":61.472867440671,"longitude":23.877276622589},{"code":5505,"name":"Palonkylä th","latitude":61.561752012371,"longitude":23.954409459389},{"code":4080,"name":"Kyläojankatu","latitude":61.484779121339,"longitude":23.852433557509},{"code":4081,"name":"Kyläojankatu","latitude":61.484082596524,"longitude":23.85066319953},{"code":5504,"name":"Palonkylä th","latitude":61.561684250708,"longitude":23.954190138329},{"code":5503,"name":"Hinkkala","latitude":61.559111716445,"longitude":23.945970018956},{"code":4082,"name":"Pitkäniitynkatu","latitude":61.462295070059,"longitude":23.903937955138},{"code":5502,"name":"Hinkkala","latitude":61.558929553725,"longitude":23.945856133178},{"code":3951,"name":"Laulunmaa","latitude":61.476531085145,"longitude":23.834844897326},{"code":5500,"name":"Marttila","latitude":61.555903654247,"longitude":23.935065283259},{"code":3950,"name":"Laulunmaa","latitude":61.477961805397,"longitude":23.832258123498},{"code":4087,"name":"Pitkäniitty","latitude":61.462576304106,"longitude":23.902877675777},{"code":4088,"name":"Vaunukatu","latitude":61.479386588632,"longitude":23.920624826489},{"code":4089,"name":"Juvankatu","latitude":61.463135287997,"longitude":23.893512064132},{"code":4083,"name":"Solkiniitynkatu","latitude":61.456315848192,"longitude":23.9040250493},{"code":4084,"name":"Levonmäki","latitude":61.461874272537,"longitude":23.905575167871},{"code":4085,"name":"Levonmäki","latitude":61.461673710707,"longitude":23.905839073022},{"code":4086,"name":"Solkiniitynkatu","latitude":61.456071800441,"longitude":23.903561364769},{"code":3705,"name":"Kauhakorvenkatu","latitude":61.450746573939,"longitude":23.869810221318},{"code":3706,"name":"Kauhakorvenkatu","latitude":61.450664305216,"longitude":23.870137452482},{"code":3703,"name":"Hermiankatu 3","latitude":61.447514772882,"longitude":23.858952886339},{"code":3704,"name":"Hermiankatu 20","latitude":61.448098913495,"longitude":23.862083531158},{"code":3503,"name":"Iidesranta","latitude":61.491127986876,"longitude":23.791952128468},{"code":3709,"name":"Työpajanraitti","latitude":61.457336672282,"longitude":23.865432700997},{"code":3504,"name":"Kuikankatu","latitude":61.489530344298,"longitude":23.798485626715},{"code":3707,"name":"Kytömaankatu","latitude":61.454540049415,"longitude":23.866839764647},{"code":3502,"name":"Iidesranta","latitude":61.491082530009,"longitude":23.790021618435},{"code":3507,"name":"Tiirantaival","latitude":61.487723949511,"longitude":23.807237799405},{"code":3508,"name":"Tiirantaival","latitude":61.487518398277,"longitude":23.808047883091},{"code":3701,"name":"Hermiankatu ","latitude":61.450075764616,"longitude":23.869539845203},{"code":3702,"name":"Hermiankatu 8","latitude":61.447210339013,"longitude":23.85821436008},{"code":3509,"name":"Järvensivun koulu","latitude":61.487507858695,"longitude":23.812200659665},{"code":4050,"name":"Juvelankatu 19","latitude":61.475613523766,"longitude":23.916603809947},{"code":4051,"name":"Seimenkatu","latitude":61.477550677661,"longitude":23.919660800321},{"code":4056,"name":"Inolankatu","latitude":61.479670968395,"longitude":23.907807450928},{"code":4054,"name":"Vehmaistenkatu 4","latitude":61.476805408389,"longitude":23.906589623586},{"code":4058,"name":"Kangasalantie 120","latitude":61.474266110452,"longitude":23.918971594624},{"code":5530,"name":"Rajakorpi","latitude":61.651941429918,"longitude":24.008887142225},{"code":5531,"name":"Kuorejärvi","latitude":61.649183191098,"longitude":23.989591961175},{"code":5524,"name":"Viitapohja","latitude":61.653527096768,"longitude":24.049222200704},{"code":5528,"name":"Paarla","latitude":61.65222363944,"longitude":24.015639164668},{"code":5527,"name":"Paarla","latitude":61.65215220559,"longitude":24.014834046479},{"code":4060,"name":"Hinkankatu","latitude":61.473762245531,"longitude":23.923696766155},{"code":4062,"name":"Aukionkatu 2","latitude":61.474256810815,"longitude":23.9277037075},{"code":4064,"name":"Nevakatu","latitude":61.477156300384,"longitude":23.927248750104},{"code":4065,"name":"Juvelankatu","latitude":61.476461733341,"longitude":23.909252707819},{"code":4066,"name":"Vehmainen","latitude":61.47811828154,"longitude":23.930083402735},{"code":5538,"name":"Riuttanmäki","latitude":61.642579375074,"longitude":23.967901509333},{"code":5539,"name":"Syväjärvi th","latitude":61.639026054824,"longitude":23.961963898983},{"code":5536,"name":"Mattilansuo","latitude":61.647592359812,"longitude":23.970015757124},{"code":1101,"name":"Airokatu","latitude":61.527309611416,"longitude":23.712976482662},{"code":5534,"name":"Vierukallio","latitude":61.649480876586,"longitude":23.978252361751},{"code":5535,"name":"Mattilansuo","latitude":61.646868605,"longitude":23.969369155901},{"code":1102,"name":"Airokatu","latitude":61.527479363224,"longitude":23.711077445069},{"code":5532,"name":"Kuorejärvi","latitude":61.649442876585,"longitude":23.991190574576},{"code":5533,"name":"Vierukallio","latitude":61.649267090979,"longitude":23.976706011986},{"code":5542,"name":"Sisaruspohja","latitude":61.637631106391,"longitude":23.960213323824},{"code":5541,"name":"Sisaruspohja","latitude":61.63690669902,"longitude":23.959944724815},{"code":5540,"name":"Syväjärvi th","latitude":61.639659671127,"longitude":23.962996536397},{"code":4418,"name":"Leinolankatu 122","latitude":61.483537270762,"longitude":23.906822509728},{"code":5547,"name":"Pyykkirannantie","latitude":61.630400213938,"longitude":23.940014215625},{"code":5548,"name":"Pyykkirannantie","latitude":61.630860984658,"longitude":23.941742580004},{"code":5549,"name":"Ala-Pärri","latitude":61.629350559169,"longitude":23.931248759582},{"code":5543,"name":"Kurjentie","latitude":61.63455320169,"longitude":23.955476386461},{"code":5544,"name":"Kurjentie","latitude":61.635053274848,"longitude":23.956559619891},{"code":5545,"name":"Lahdentausta","latitude":61.632768956668,"longitude":23.950367570377},{"code":5546,"name":"Lahdentausta","latitude":61.632890348311,"longitude":23.9521862587},{"code":5551,"name":"Tiinukorpi","latitude":61.628080188053,"longitude":23.925072118474},{"code":5550,"name":"Ala-Pärri","latitude":61.629389539851,"longitude":23.932584703064},{"code":5553,"name":"Perkiönvuori","latitude":61.628001151933,"longitude":23.91996622409},{"code":5552,"name":"Tiinukorpi","latitude":61.62806072462,"longitude":23.926602519231},{"code":5141,"name":"Orimuskatu 81","latitude":61.500826383744,"longitude":23.915590651264},{"code":5143,"name":"Aitoniitynkatu","latitude":61.49325682116,"longitude":23.907322274887},{"code":5556,"name":"Vattula","latitude":61.626883608564,"longitude":23.911831479196},{"code":5557,"name":"Loppi","latitude":61.625218152249,"longitude":23.902525686094},{"code":5554,"name":"Perkiönvuori","latitude":61.627905658526,"longitude":23.919315273815},{"code":5555,"name":"Vattula","latitude":61.626689574718,"longitude":23.910001650652},{"code":5558,"name":"Loppi","latitude":61.62565164722,"longitude":23.903425730344},{"code":5559,"name":"Ylä-Pirilä","latitude":61.620809565756,"longitude":23.897023969764},{"code":5560,"name":"Ylä-Pirilä","latitude":61.621103151924,"longitude":23.898088777218},{"code":5564,"name":"Iso-Kartano","latitude":61.614971797505,"longitude":23.878086293954},{"code":5563,"name":"Iso-Kartano","latitude":61.614983762967,"longitude":23.878217120614},{"code":5562,"name":"Pirilä","latitude":61.617435136224,"longitude":23.888043355886},{"code":5561,"name":"Pirilä","latitude":61.617246083848,"longitude":23.887628471855},{"code":5139,"name":"Ali-Huikkaantie 21","latitude":61.498531989044,"longitude":23.838207678448},{"code":5137,"name":"Kuusenmäenrinne","latitude":61.500759299749,"longitude":23.843243582226},{"code":5136,"name":"Orimuskatu 80","latitude":61.500848541842,"longitude":23.915776383069},{"code":596,"name":"Kelloportinkatu","latitude":61.501768157011,"longitude":23.76411020536},{"code":5180,"name":"Paloniityntie","latitude":61.51586887233,"longitude":23.932299140958},{"code":3901,"name":"Kuokkamaantie 2","latitude":61.482116718045,"longitude":23.77736580817},{"code":5379,"name":"Eteläpohja","latitude":61.738606915215,"longitude":23.916452953016},{"code":5378,"name":"Etelä","latitude":61.733082900364,"longitude":23.914014018947},{"code":3908,"name":"Niittyhaankatu","latitude":61.453321905809,"longitude":23.882236569848},{"code":5383,"name":"Salmensilta","latitude":61.747210152169,"longitude":23.923642504782},{"code":5384,"name":"Salmensilta","latitude":61.747427264523,"longitude":23.924113329128},{"code":5381,"name":"Velaatta","latitude":61.744982834349,"longitude":23.920436502795},{"code":5387,"name":"Ilvesjoki","latitude":61.761453040272,"longitude":23.957848160054},{"code":5388,"name":"Ilvesjoki","latitude":61.761651704531,"longitude":23.958302323757},{"code":5386,"name":"Särkänperä","latitude":61.75671796435,"longitude":23.948443839113},{"code":5380,"name":"Eteläpohja","latitude":61.738971286922,"longitude":23.916681635115},{"code":5389,"name":"Murole th","latitude":61.769650976219,"longitude":23.978515296845},{"code":5196,"name":"Koljontie 30","latitude":61.508219523534,"longitude":23.793103484182},{"code":5198,"name":"Kaupinkatu","latitude":61.508373962251,"longitude":23.795850965149},{"code":5392,"name":"Kaanaa","latitude":61.774267244577,"longitude":23.989153033253},{"code":5393,"name":"Mäntylä","latitude":61.782156602562,"longitude":24.005372293406},{"code":5394,"name":"Mäntylä","latitude":61.782701658097,"longitude":24.006893261008},{"code":5390,"name":"Murole th","latitude":61.769936469888,"longitude":23.979245531866},{"code":5391,"name":"Kaanaa","latitude":61.773541108043,"longitude":23.987574673242},{"code":2007,"name":"Rosendahl","latitude":61.494024647596,"longitude":23.730190554277},{"code":2008,"name":"Trikookuja","latitude":61.493687577319,"longitude":23.724757955209},{"code":2005,"name":"Pyynikintie","latitude":61.493153984108,"longitude":23.738831485645},{"code":2006,"name":"Rosendahl","latitude":61.4942602841,"longitude":23.730278536614},{"code":2003,"name":"Piispantalo","latitude":61.49307522664,"longitude":23.743800258196},{"code":2004,"name":"Pyynikintie","latitude":61.493073831383,"longitude":23.73961024719},{"code":2001,"name":"Mäntypuisto","latitude":61.494540047472,"longitude":23.744210755994},{"code":2002,"name":"Piispantalo","latitude":61.493151393754,"longitude":23.743604386166},{"code":2009,"name":"Trikookuja","latitude":61.493780627607,"longitude":23.723771039103},{"code":600,"name":"Lapintie 2","latitude":61.501530264358,"longitude":23.764304106722},{"code":2011,"name":"Varala","latitude":61.495843763153,"longitude":23.71769083943},{"code":1720,"name":"Korvenkatu 32","latitude":61.499572001368,"longitude":23.623625450126},{"code":601,"name":"Tietotalo","latitude":61.491172035323,"longitude":23.776315683276},{"code":5221,"name":"Sorilan koulu","latitude":61.555224764537,"longitude":23.931630743803},{"code":2016,"name":"Hirvikatu","latitude":61.500106111636,"longitude":23.71380187045},{"code":2017,"name":"Tahmela","latitude":61.503723584112,"longitude":23.705901103435},{"code":5220,"name":"Vt9 ramppi","latitude":61.532113171012,"longitude":23.952253930035},{"code":2018,"name":"Mäntypuisto","latitude":61.494310243975,"longitude":23.744742141793},{"code":2019,"name":"Mäntypuisto","latitude":61.494145843159,"longitude":23.744627789391},{"code":2012,"name":"Varala","latitude":61.495870243853,"longitude":23.718045069876},{"code":2013,"name":"Tahmelankatu","latitude":61.497889230661,"longitude":23.716103185749},{"code":2014,"name":"Tahmelankatu 6","latitude":61.498144537959,"longitude":23.715888334911},{"code":1712,"name":"Kohmankaari 2","latitude":61.504038727547,"longitude":23.636806598178},{"code":2020,"name":"Palomäentie 14","latitude":61.494500172076,"longitude":23.74179091194},{"code":5218,"name":"Sorila","latitude":61.555086870668,"longitude":23.935484790031},{"code":2022,"name":"Palomäentie 32","latitude":61.496195061038,"longitude":23.73680277557},{"code":1710,"name":"Ikurintie 57","latitude":61.509568943957,"longitude":23.593661541306},{"code":2021,"name":"Palomäentie 15","latitude":61.494432527527,"longitude":23.741591293583},{"code":5213,"name":"Heinontie","latitude":61.542443797193,"longitude":23.939554686693},{"code":5215,"name":"Sorilanjoenahde","latitude":61.548082858333,"longitude":23.938321484404},{"code":5216,"name":"Kantapartolantie","latitude":61.548488929589,"longitude":23.938808448269},{"code":5252,"name":"Kaupin sairaala","latitude":61.50698856159,"longitude":23.787741393539},{"code":5251,"name":"Ahkionkatu","latitude":61.506336217623,"longitude":23.924141794084},{"code":5250,"name":"Metsästäjänkatu","latitude":61.503669851466,"longitude":23.905535597877},{"code":3598,"name":"Länsi-Hervanta","latitude":61.447976586353,"longitude":23.835079062502},{"code":5253,"name":"UKK-instituutti","latitude":61.513357403272,"longitude":23.806900529744},{"code":1703,"name":"Heinämiehentie","latitude":61.512687787868,"longitude":23.607065092652},{"code":1704,"name":"Ikurintie 61","latitude":61.512135739487,"longitude":23.595373508875},{"code":1701,"name":"Kohmankaari 3","latitude":61.50388320066,"longitude":23.63669185909},{"code":1702,"name":"Heinämiehentie","latitude":61.512785302853,"longitude":23.607374115715},{"code":5248,"name":"Kelkkakatu","latitude":61.501448248608,"longitude":23.914100725802},{"code":5249,"name":"Atala","latitude":61.507893413191,"longitude":23.920322402162},{"code":1700,"name":"Ikurintie","latitude":61.51502831737,"longitude":23.596824459019},{"code":2000,"name":"Mäntypuisto","latitude":61.495231696158,"longitude":23.744213552184},{"code":3106,"name":"Nirvankatu 52","latitude":61.465496830497,"longitude":23.789728804364},{"code":3105,"name":"Nirvankallionkatu","latitude":61.465503294319,"longitude":23.794196073881},{"code":3107,"name":"Nirvansuonkatu","latitude":61.465414437663,"longitude":23.789662198589},{"code":3102,"name":"Koivistonkeskus","latitude":61.469858884677,"longitude":23.787702236983},{"code":3104,"name":"Nirvankallionkatu","latitude":61.465225360144,"longitude":23.792309834967},{"code":3103,"name":"Koivistonkeskus","latitude":61.469612048693,"longitude":23.789041964379},{"code":3100,"name":"Kuokkamaantie 14","latitude":61.48229801045,"longitude":23.789987986349},{"code":5006,"name":"TAMK","latitude":61.502235822528,"longitude":23.807929087046},{"code":5007,"name":"TAYS","latitude":61.503107544355,"longitude":23.812557274267},{"code":5211,"name":"Lintukalliontie","latitude":61.537683469823,"longitude":23.941528756436},{"code":5212,"name":"Lintukalliontie","latitude":61.538372612186,"longitude":23.941423268605},{"code":5008,"name":"TAYS","latitude":61.502788327954,"longitude":23.81311622479},{"code":5210,"name":"Vastarannankatu","latitude":61.530892505256,"longitude":23.953088425602},{"code":5009,"name":"Kissanmaankatu 7","latitude":61.501453759377,"longitude":23.816729851175},{"code":5205,"name":"Olkahinen","latitude":61.522465893774,"longitude":23.95054801497},{"code":5010,"name":"Kissanmaankatu 8","latitude":61.501516243653,"longitude":23.816328767006},{"code":5204,"name":"Ojala","latitude":61.518656556725,"longitude":23.946465174574},{"code":5203,"name":"Kolmala","latitude":61.516740637709,"longitude":23.937120557192},{"code":5202,"name":"Kolmala","latitude":61.517050698771,"longitude":23.940530867233},{"code":5209,"name":"Vastarannankatu","latitude":61.529552724748,"longitude":23.953012853044},{"code":5014,"name":"Naistenlahti","latitude":61.508602677887,"longitude":23.777742922298},{"code":5208,"name":"Lennosto","latitude":61.526927124299,"longitude":23.954473915345},{"code":5207,"name":"Lennosto","latitude":61.525764880912,"longitude":23.954305654737},{"code":5206,"name":"Olkahinen","latitude":61.522343797536,"longitude":23.950710430154},{"code":5200,"name":"Kumpula","latitude":61.515012589052,"longitude":23.928172125721},{"code":5201,"name":"Aitolahdentie 145","latitude":61.517401088574,"longitude":23.941737386355},{"code":5001,"name":"Teiskontie 13","latitude":61.500491120403,"longitude":23.793674430571},{"code":5000,"name":"Kalevan kirkko","latitude":61.499969527389,"longitude":23.792882468011},{"code":5003,"name":"Teiskontie 25","latitude":61.501694650864,"longitude":23.799790216325},{"code":3147,"name":"Korkinmäenkatu ","latitude":61.473845395185,"longitude":23.82518450691},{"code":3145,"name":"Kyläkeinunkatu","latitude":61.472667426305,"longitude":23.827820629943},{"code":3540,"name":"Kertunpolku","latitude":61.490451712903,"longitude":23.805981118666},{"code":1522,"name":"Winterin alue","latitude":61.504675533226,"longitude":23.66087425254},{"code":3537,"name":"Kiurunpolku","latitude":61.491719417443,"longitude":23.796475569601},{"code":1521,"name":"Pispalan vt 141","latitude":61.507560967448,"longitude":23.665734362941},{"code":3536,"name":"Kiurunpolku","latitude":61.491643037929,"longitude":23.795901001902},{"code":1524,"name":"Kaarila","latitude":61.502499508121,"longitude":23.656747015698},{"code":3535,"name":"Järvensivuntie 15","latitude":61.491551878895,"longitude":23.788977420352},{"code":1523,"name":"Winterin alue","latitude":61.50512000672,"longitude":23.661785224424},{"code":3532,"name":"Pinni","latitude":61.491671653176,"longitude":23.782633324605},{"code":1520,"name":"Pispalan vt 138","latitude":61.50766593812,"longitude":23.66525312142},{"code":3531,"name":"Teekkarinkatu","latitude":61.444660786397,"longitude":23.838867312572},{"code":3530,"name":"Teekkarinkatu","latitude":61.444819893581,"longitude":23.838757396783},{"code":1529,"name":"Risuharjunkatu","latitude":61.501421816076,"longitude":23.645058978609},{"code":1526,"name":"Nokiantie 36","latitude":61.501070168665,"longitude":23.650115363535},{"code":1525,"name":"Puistokaarila","latitude":61.502620582338,"longitude":23.657655031169},{"code":1528,"name":"Tesoman vt 26","latitude":61.502043816661,"longitude":23.642961913092},{"code":3539,"name":"Peippospolku","latitude":61.491219081215,"longitude":23.80193807347},{"code":3538,"name":"Peippospolku","latitude":61.491184444321,"longitude":23.80122767604},{"code":3138,"name":"Havumetsänkatu","latitude":61.462188948083,"longitude":23.832171931444},{"code":3134,"name":"Hallila","latitude":61.461014002769,"longitude":23.83069593685},{"code":3136,"name":"Hallilan koulu","latitude":61.464389046693,"longitude":23.837955259078},{"code":3551,"name":"Vasaratie 13","latitude":61.474185081472,"longitude":23.847927076631},{"code":3546,"name":"Ratapihankatu","latitude":61.492792364935,"longitude":23.776091512292},{"code":1513,"name":"Hyhkynkatu","latitude":61.507050158555,"longitude":23.693799611669},{"code":3545,"name":"Järvensivu","latitude":61.488874456234,"longitude":23.81764037174},{"code":1512,"name":"Hyhkynkatu","latitude":61.507435286802,"longitude":23.691164414543},{"code":3548,"name":"Nuijatie","latitude":61.476284188963,"longitude":23.847432993187},{"code":1511,"name":"Pispalantori","latitude":61.50618197266,"longitude":23.698741849534},{"code":3547,"name":"Ratapihankatu","latitude":61.492703482275,"longitude":23.776889890103},{"code":1510,"name":"Pispalantori","latitude":61.506405291588,"longitude":23.699432500623},{"code":3542,"name":"Pääskynpolku","latitude":61.488734141973,"longitude":23.813559226402},{"code":3541,"name":"Kertunpolku","latitude":61.490553343145,"longitude":23.806102190332},{"code":3543,"name":"Pääskynpolku","latitude":61.488904565007,"longitude":23.813166051138},{"code":3141,"name":"Havumetsänkatu","latitude":61.462335980511,"longitude":23.832701344511},{"code":1519,"name":"Epilä","latitude":61.508146455523,"longitude":23.670578344561},{"code":3144,"name":"Kyläkeinunkatu","latitude":61.472573460788,"longitude":23.827642421392},{"code":3143,"name":"Hallilan koulu","latitude":61.46461155785,"longitude":23.839415641933},{"code":1518,"name":"Epilä","latitude":61.508370804618,"longitude":23.671306329252},{"code":3549,"name":"Nuijatie","latitude":61.476073487449,"longitude":23.847642086219},{"code":1514,"name":"Haapalinna","latitude":61.508750490197,"longitude":23.681718541555},{"code":3125,"name":"Kuusikonkatu","latitude":61.467400457848,"longitude":23.835753551221},{"code":3126,"name":"Kiulukatu","latitude":61.472305623257,"longitude":23.820008870121},{"code":3123,"name":"Hallilantie","latitude":61.473375211623,"longitude":23.812745535336},{"code":3124,"name":"Loukkaankatu","latitude":61.473158554174,"longitude":23.820766786977},{"code":3129,"name":"Pehkusuonkatu","latitude":61.466245496913,"longitude":23.821641003993},{"code":2624,"name":"Korpitie","latitude":61.454539803435,"longitude":23.727876711126},{"code":3999,"name":"Puhhoonlahti","latitude":61.487690551529,"longitude":23.821556122471},{"code":2623,"name":"Toivionkatu 3","latitude":61.461683771657,"longitude":23.723916848656},{"code":3127,"name":"Lehtimetsänkatu","latitude":61.4674038778,"longitude":23.827023528046},{"code":3128,"name":"Pehkusuonkatu","latitude":61.466459880852,"longitude":23.822745520795},{"code":2621,"name":"Toiviontie","latitude":61.461877310261,"longitude":23.718527920937},{"code":2627,"name":"Patamäenkatu 11","latitude":61.45529529527,"longitude":23.736899514933},{"code":2626,"name":"Patamäenkatu 16","latitude":61.455380410878,"longitude":23.736702941109},{"code":2625,"name":"Korpitie","latitude":61.454272866862,"longitude":23.728355122733},{"code":3511,"name":"Vuohenoja","latitude":61.485888394333,"longitude":23.829009765733},{"code":1500,"name":"Ammattikoulu","latitude":61.49863411063,"longitude":23.735513377662},{"code":3515,"name":"Lukonmäki pohj.","latitude":61.465554972281,"longitude":23.842530027758},{"code":1502,"name":"Tipotie","latitude":61.498885133363,"longitude":23.727631354556},{"code":3513,"name":"Turtola","latitude":61.479731985903,"longitude":23.831139058026},{"code":3512,"name":"Vuohenoja","latitude":61.48579729292,"longitude":23.828568210471},{"code":1501,"name":"Ammattikoulu","latitude":61.498398034599,"longitude":23.735406591259},{"code":1504,"name":"Rajaportti","latitude":61.502118379033,"longitude":23.72090081935},{"code":3518,"name":"Lukonmäki et.","latitude":61.46356254375,"longitude":23.842975913372},{"code":1506,"name":"Pulteri","latitude":61.504331853777,"longitude":23.714727701442},{"code":3517,"name":"Lukonmäki et.","latitude":61.462896059306,"longitude":23.844057034263},{"code":3516,"name":"Lukonmäki pohj.","latitude":61.466191247289,"longitude":23.841695894238},{"code":1505,"name":"Rajaportti","latitude":61.50113359506,"longitude":23.722527000543},{"code":3133,"name":"Perkkoonkatu","latitude":61.437399648186,"longitude":23.75098173931},{"code":1508,"name":"Ahjola","latitude":61.505162073014,"longitude":23.709677500775},{"code":3132,"name":"Kuusikonkatu","latitude":61.466387122469,"longitude":23.837752528498},{"code":1507,"name":"Pulteri","latitude":61.503628502809,"longitude":23.71647487388},{"code":3131,"name":"Kiulukatu","latitude":61.471496830912,"longitude":23.819603239657},{"code":3130,"name":"Lehtimetsänkatu","latitude":61.467250029856,"longitude":23.826588629345},{"code":1509,"name":"Ahjola","latitude":61.505032937949,"longitude":23.70916482415},{"code":3112,"name":"Leppästensuonkatu","latitude":61.455119882549,"longitude":23.780832300777},{"code":3115,"name":"Lempääläntie 31","latitude":61.461316683785,"longitude":23.763392760117},{"code":3116,"name":"Lempääläntie","latitude":61.460771283584,"longitude":23.76198532154},{"code":3118,"name":"Uotilantie","latitude":61.479946061733,"longitude":23.816824803667},{"code":1771,"name":"Mustavuori","latitude":61.493516578107,"longitude":23.592900468717},{"code":3524,"name":"Ahvenisjärvi ","latitude":61.449199301055,"longitude":23.850621631488},{"code":3523,"name":"Hervantakeskus","latitude":61.451475916096,"longitude":23.848871827755},{"code":3526,"name":"Sähkökatu","latitude":61.4471851673,"longitude":23.848967661495},{"code":3528,"name":"Ahvenisraitti","latitude":61.445909042526,"longitude":23.843505969313},{"code":3527,"name":"Valtaraitti","latitude":61.447047006821,"longitude":23.849206748206},{"code":3529,"name":"Ahvenisraitti","latitude":61.44590936362,"longitude":23.84429387127},{"code":3120,"name":"Sotilaankatu ","latitude":61.478326185304,"longitude":23.841761329812},{"code":3122,"name":"Hallilantie ","latitude":61.473065244007,"longitude":23.814467189492},{"code":3584,"name":"Santaharjuntie","latitude":61.473918381214,"longitude":23.862825604666},{"code":1764,"name":"Likolampi","latitude":61.494247326671,"longitude":23.61392394057},{"code":3583,"name":"Santaharjuntie","latitude":61.474135874512,"longitude":23.864080553465},{"code":1763,"name":"Likolampi","latitude":61.49438499281,"longitude":23.615487507848},{"code":2607,"name":"Partolanhovi","latitude":61.472589695765,"longitude":23.718413613819},{"code":1766,"name":"Saarenkärki","latitude":61.493199159327,"longitude":23.60573219311},{"code":1570,"name":"Korvenkatu 44","latitude":61.499294442485,"longitude":23.616419523309},{"code":3581,"name":"Ammattikoulu","latitude":61.458693099088,"longitude":23.854542246979},{"code":1765,"name":"Saarenkärki","latitude":61.493276452933,"longitude":23.607753236203},{"code":2608,"name":"Partolanhovi","latitude":61.473005875889,"longitude":23.718538781668},{"code":1760,"name":"Hutikonpolku","latitude":61.50294255717,"longitude":23.685176261093},{"code":3580,"name":"Ammattikoulu","latitude":61.458587289866,"longitude":23.854627983123},{"code":2605,"name":"Kutteritie","latitude":61.476211010104,"longitude":23.712153942511},{"code":2606,"name":"Kutteritie","latitude":61.476473001909,"longitude":23.711844578413},{"code":2603,"name":"Pereentie","latitude":61.476910338205,"longitude":23.708755976735},{"code":1762,"name":"Villilä","latitude":61.496769587747,"longitude":23.62507589519},{"code":1761,"name":"Villilä","latitude":61.495780746032,"longitude":23.621781655487},{"code":2604,"name":"Pereentie","latitude":61.477045445397,"longitude":23.708028057236},{"code":1768,"name":"Salmenranta","latitude":61.492590208795,"longitude":23.600762595593},{"code":1767,"name":"Salmenranta","latitude":61.492636950427,"longitude":23.602636613169},{"code":1769,"name":"Mustalampi","latitude":61.492008638375,"longitude":23.594380882169},{"code":1565,"name":"Pukkisaarenkatu","latitude":61.498059412967,"longitude":23.634370645254},{"code":1566,"name":"Vanha Kirkkotie","latitude":61.497777400215,"longitude":23.631318950897},{"code":1567,"name":"Vanha Kirkkotie 7","latitude":61.498913192775,"longitude":23.62894062825},{"code":3578,"name":"Hervannan lukio","latitude":61.450101418616,"longitude":23.832217838974},{"code":3579,"name":"Hervannan lukio","latitude":61.449852963853,"longitude":23.831961609366},{"code":1568,"name":"Korvenkatu 34","latitude":61.499569681144,"longitude":23.619547174144},{"code":1561,"name":"Piikahaka","latitude":61.500320781485,"longitude":23.644482280991},{"code":1562,"name":"Piikahaka","latitude":61.500221609607,"longitude":23.643008154271},{"code":3577,"name":"Opiskelijankatu 23","latitude":61.451441687679,"longitude":23.838874201592},{"code":3574,"name":"Valtaraitti","latitude":61.453125853743,"longitude":23.845271143506},{"code":1564,"name":"Metsäkylänkatu","latitude":61.498911939539,"longitude":23.63615789218},{"code":3590,"name":"Steiner-koulu","latitude":61.479192217666,"longitude":23.82608561632},{"code":1759,"name":"Vanha kirkkotie","latitude":61.497438211305,"longitude":23.62958906807},{"code":1558,"name":"Vaakkolampi","latitude":61.50229373872,"longitude":23.66300949747},{"code":1556,"name":"Siirtolapuutarha","latitude":61.49966772614,"longitude":23.665809614236},{"code":3589,"name":"Steiner-koulu","latitude":61.479309104704,"longitude":23.826862499472},{"code":1557,"name":"Vaakkolampi","latitude":61.502061502268,"longitude":23.663429122013},{"code":1554,"name":"Simolankatu 54","latitude":61.499280519664,"longitude":23.668707845306},{"code":1555,"name":"Siirtolapuutarha","latitude":61.499632117177,"longitude":23.665456315604},{"code":3585,"name":"Lukonmäenkatu","latitude":61.467804965626,"longitude":23.853209512689},{"code":1552,"name":"Simolankatu 32","latitude":61.500371646255,"longitude":23.676240601107},{"code":1553,"name":"Ojustenkatu","latitude":61.499428397116,"longitude":23.669612950296},{"code":1550,"name":"Simolankatu 18","latitude":61.500787861501,"longitude":23.682999998467},{"code":3588,"name":"Lukonmäenkatu","latitude":61.467400470688,"longitude":23.853194051734},{"code":1551,"name":"Simolankatu 27","latitude":61.500228124075,"longitude":23.67588003216},{"code":1740,"name":"Haukihaaranraitti","latitude":61.513244648129,"longitude":23.582258766583},{"code":2030,"name":"Pispalanharju 18","latitude":61.501639771673,"longitude":23.717436553146},{"code":3562,"name":"Sotilaankatu","latitude":61.479032584138,"longitude":23.832731433904},{"code":2031,"name":"Pispalanharju ","latitude":61.503579530305,"longitude":23.711837294093},{"code":1741,"name":"Haukihaaranraitti","latitude":61.513260642973,"longitude":23.582539069414},{"code":3560,"name":"Kierikankatu","latitude":61.464632732226,"longitude":23.855069091381},{"code":2033,"name":"Tahmelan viertotie","latitude":61.501486068438,"longitude":23.711062377236},{"code":3169,"name":"Postitorvenkatu","latitude":61.454802542997,"longitude":23.770468444781},{"code":3168,"name":"Postitorvenkatu","latitude":61.454681439729,"longitude":23.775210139145},{"code":3167,"name":"IKEA","latitude":61.454202312566,"longitude":23.772426006071},{"code":3760,"name":"Kotkansiipi","latitude":61.439729213972,"longitude":23.845406684811},{"code":1547,"name":"Pispan palvelukeskus","latitude":61.502113875067,"longitude":23.688403448231},{"code":1548,"name":"Pispan palvelukeskus","latitude":61.501741399534,"longitude":23.687860417487},{"code":3170,"name":"Automiehenkatu 2","latitude":61.454899957693,"longitude":23.761337744604},{"code":1549,"name":"Simolankatu 7","latitude":61.500693432346,"longitude":23.68317924524},{"code":3554,"name":"Vasaratie 22","latitude":61.473043038904,"longitude":23.852135949428},{"code":2023,"name":"Palomäentie 31","latitude":61.496252363697,"longitude":23.736195417059},{"code":1540,"name":"Virontörmänkatu 2","latitude":61.5050582439,"longitude":23.605115066646},{"code":3555,"name":"Vasaratie 31","latitude":61.472761797031,"longitude":23.855900879579},{"code":2026,"name":"Pyynikinharju","latitude":61.498277330336,"longitude":23.72476353256},{"code":1541,"name":"Virontörmänkatu 1","latitude":61.504694806082,"longitude":23.604947950498},{"code":3552,"name":"Vasaratie 12","latitude":61.473813241721,"longitude":23.84854678999},{"code":2025,"name":"Pyynikinharju","latitude":61.49828221881,"longitude":23.724593868506},{"code":3553,"name":"Vasaratie 25","latitude":61.472911367683,"longitude":23.852656227886},{"code":2028,"name":"Pispalanharju 2","latitude":61.500219995807,"longitude":23.721138471168},{"code":1543,"name":"Savilinnantie ","latitude":61.498816419393,"longitude":23.73562582072},{"code":2027,"name":"Pispalanharju 1","latitude":61.50009637329,"longitude":23.72122667253},{"code":1544,"name":"Savilinnantie ","latitude":61.499097768562,"longitude":23.736122517268},{"code":1545,"name":"Mattilankatu","latitude":61.503071176473,"longitude":23.685294128912},{"code":3556,"name":"Kirvestie","latitude":61.472598397846,"longitude":23.857381941344},{"code":2029,"name":"Pispalanharju 19","latitude":61.5014991341,"longitude":23.717564155413},{"code":1546,"name":"Peurankatu","latitude":61.506530479599,"longitude":23.682763673794},{"code":3557,"name":"Iidesaukio","latitude":61.491233624539,"longitude":23.785384097142},{"code":1733,"name":"Juoksuhaudankatu","latitude":61.499189619524,"longitude":23.600661932911},{"code":3570,"name":"Tieteenkatu","latitude":61.457132469398,"longitude":23.848806820863},{"code":1732,"name":"Juoksuhaudankatu","latitude":61.499401157991,"longitude":23.599060016595},{"code":1730,"name":"Leirikatu","latitude":61.500780251618,"longitude":23.607179522085},{"code":1735,"name":"Kalkunvuorenkatu 4","latitude":61.499482926349,"longitude":23.595141653171},{"code":1734,"name":"Kalkunvuorenkatu 3","latitude":61.499708748296,"longitude":23.595192114861},{"code":3158,"name":"TAKK","latitude":61.46294472838,"longitude":23.785862017046},{"code":3761,"name":"Kotkansiipi","latitude":61.439616062205,"longitude":23.845174296591},{"code":3762,"name":"Siltanen","latitude":61.436434645677,"longitude":23.845083358406},{"code":1539,"name":"Tesomankatu 31","latitude":61.504239938986,"longitude":23.60652024619},{"code":1536,"name":"Tesomankatu","latitude":61.504629410365,"longitude":23.611703680409},{"code":3161,"name":"Särkijärvenkatu","latitude":61.460521017515,"longitude":23.780593598718},{"code":1537,"name":"Tesomankatu 27","latitude":61.504421218608,"longitude":23.612722637857},{"code":3163,"name":"TAKK","latitude":61.462896391801,"longitude":23.785716812194},{"code":3165,"name":"Perkiö","latitude":61.455455807402,"longitude":23.780985286565},{"code":3563,"name":"Turtola","latitude":61.477547588149,"longitude":23.839943544177},{"code":1531,"name":"Kokkolankatu","latitude":61.502137609021,"longitude":23.63620388183},{"code":3564,"name":"Finninmäki","latitude":61.464899149726,"longitude":23.863114052927},{"code":3565,"name":"Finninmäki","latitude":61.465236482639,"longitude":23.86411255444},{"code":3566,"name":"Lukonmäki","latitude":61.463364146773,"longitude":23.857693624459},{"code":1534,"name":"Tesomajärvenkatu","latitude":61.504687141725,"longitude":23.617280476021},{"code":3567,"name":"Lukonmäki","latitude":61.463159666154,"longitude":23.857395127939},{"code":3568,"name":"Ammattikoulu","latitude":61.45853683173,"longitude":23.851667735916},{"code":1535,"name":"Tesomajärvenkatu","latitude":61.504416885488,"longitude":23.619058077545},{"code":3569,"name":"Ammattikoulu","latitude":61.458362705699,"longitude":23.851516410812},{"code":1532,"name":"Länsitori","latitude":61.504831111252,"longitude":23.629615246474},{"code":4104,"name":"Levonmäki","latitude":61.464677107992,"longitude":23.907192767167},{"code":35,"name":"Keskustori C","latitude":61.497667754745,"longitude":23.758992774663},{"code":4102,"name":"Kaukajärventie","latitude":61.47701879751,"longitude":23.918380115504},{"code":4108,"name":"Juvankatu 52","latitude":61.462952286392,"longitude":23.895332237844},{"code":38,"name":"Finlayson","latitude":61.500605425967,"longitude":23.759400988852},{"code":36,"name":"Keskustori B","latitude":61.497588581634,"longitude":23.757929865906},{"code":4106,"name":"Juvankatu 46","latitude":61.463193022351,"longitude":23.887781344711},{"code":4519,"name":"Hakametsä","latitude":61.493580821588,"longitude":23.826892127238},{"code":4518,"name":"Sarvijaakonkatu ","latitude":61.492750849632,"longitude":23.819799379224},{"code":4517,"name":"Sammonkatu 47","latitude":61.493207976577,"longitude":23.818606534914},{"code":42,"name":"Keskustori I","latitude":61.497441329125,"longitude":23.760801629663},{"code":41,"name":"Keskustori R","latitude":61.49726294049,"longitude":23.76160946836},{"code":40,"name":"Keskustori J","latitude":61.497073062884,"longitude":23.761178229731},{"code":4516,"name":"Sammonkatu 66","latitude":61.493565836441,"longitude":23.816240056639},{"code":4515,"name":"Sammonkatu 45","latitude":61.494272681606,"longitude":23.814589423185},{"code":4514,"name":"Sammonkatu 56","latitude":61.494988393939,"longitude":23.809480364962},{"code":29,"name":"Pyynikintori","latitude":61.49775995126,"longitude":23.742144948299},{"code":5645,"name":"Kalliojärvi","latitude":61.572922787443,"longitude":23.894185383198},{"code":21,"name":"Tuulensuu","latitude":61.497094013478,"longitude":23.753001431824},{"code":22,"name":"Metso","latitude":61.49774726901,"longitude":23.750640584637},{"code":5644,"name":"Kalliojärvi","latitude":61.57389857839,"longitude":23.893654432878},{"code":24,"name":"Metso","latitude":61.497718176416,"longitude":23.750173805941},{"code":5649,"name":"Koivuporras","latitude":61.593664218507,"longitude":23.878253193987},{"code":25,"name":"Aleksanterin kirkko","latitude":61.497440495946,"longitude":23.748323539877},{"code":5648,"name":"Koivuporras","latitude":61.594402262666,"longitude":23.877537951081},{"code":5647,"name":"Koikantie","latitude":61.587426168912,"longitude":23.884308778048},{"code":28,"name":"Pyynikintori","latitude":61.497992439405,"longitude":23.742477697396},{"code":5646,"name":"Koikantie","latitude":61.587909545061,"longitude":23.883845600186},{"code":4507,"name":"Sammonkatu 43","latitude":61.495532846965,"longitude":23.808184342584},{"code":4506,"name":"Uintikeskus","latitude":61.496095943258,"longitude":23.804236857723},{"code":31,"name":"Pyynikintori","latitude":61.497496559584,"longitude":23.742022186143},{"code":4501,"name":"Kalevan kirkko","latitude":61.498498744864,"longitude":23.790684946231},{"code":4503,"name":"Sammonkatu 13","latitude":61.497716919387,"longitude":23.79600859856},{"code":4504,"name":"Sammonkatu 26","latitude":61.497221795433,"longitude":23.797487743114},{"code":1451,"name":"Prisma Lielahti","latitude":61.518840465461,"longitude":23.665295909336},{"code":19,"name":"Tuulensuu","latitude":61.497107868348,"longitude":23.753206697894},{"code":1073,"name":"Välisalonkuja","latitude":61.526680665811,"longitude":23.669665402822},{"code":17,"name":"Tuulensuu","latitude":61.497133400207,"longitude":23.753523511472},{"code":1075,"name":"Harjunsivu","latitude":61.515880737066,"longitude":23.670615288036},{"code":15,"name":"Keskustori D","latitude":61.497791688425,"longitude":23.760426906068},{"code":12,"name":"Keskustori H","latitude":61.497586951296,"longitude":23.760504585102},{"code":13,"name":"Keskustori K","latitude":61.497651797572,"longitude":23.761343502791},{"code":10,"name":"Keskustori F","latitude":61.497507419066,"longitude":23.758671206785},{"code":1072,"name":"Harjuntausta 4","latitude":61.514569856104,"longitude":23.670266729685},{"code":1071,"name":"Ryydynpohja","latitude":61.527050448534,"longitude":23.657981635354},{"code":11,"name":"Keskustori G","latitude":61.49753470023,"longitude":23.759063004086},{"code":20,"name":"Tuulensuu","latitude":61.497281645041,"longitude":23.753714773569},{"code":1066,"name":"Enqvistinkatu","latitude":61.514907555649,"longitude":23.672693877369},{"code":2598,"name":"Hatanpään koulu","latitude":61.473755965264,"longitude":23.764147242729},{"code":1067,"name":"Enqvistinkatu","latitude":61.513953776287,"longitude":23.673360027755},{"code":1068,"name":"Sellukatu","latitude":61.517109506983,"longitude":23.669073340401},{"code":2595,"name":"Kenkätie","latitude":61.46734286645,"longitude":23.718722122819},{"code":1069,"name":"Harjuntausta 7","latitude":61.515021526446,"longitude":23.668902088795},{"code":2591,"name":"Kenkätie","latitude":61.465770533861,"longitude":23.718699953433},{"code":1064,"name":"Lintulamminkatu 4","latitude":61.526738137163,"longitude":23.669076123568},{"code":2592,"name":"Saapastie","latitude":61.466818340009,"longitude":23.721555925736},{"code":1063,"name":"Possilanraitti","latitude":61.527538931369,"longitude":23.67465255063},{"code":1062,"name":"Itämäenkatu","latitude":61.527546382195,"longitude":23.677906117493},{"code":1061,"name":"Possilankatu 15","latitude":61.524990202432,"longitude":23.667382429671},{"code":1060,"name":"Possilankatu 18","latitude":61.525273629427,"longitude":23.667953964042},{"code":2590,"name":"Kenkätie","latitude":61.465756735425,"longitude":23.71924584027},{"code":2588,"name":"Sarankulmankatu 14","latitude":61.466278771626,"longitude":23.759798524878},{"code":1059,"name":"Ritalankatu","latitude":61.529775677523,"longitude":23.660698640236},{"code":4100,"name":"Kauppilaisenkatu 20","latitude":61.4780600226,"longitude":23.914389831618},{"code":1057,"name":"Viholankatu","latitude":61.530322093953,"longitude":23.665042225382},{"code":1058,"name":"Ritalankatu","latitude":61.529574216662,"longitude":23.660174714272},{"code":2584,"name":"Kenkätie 6","latitude":61.467242884659,"longitude":23.718300815571},{"code":1055,"name":"Kukkolankatu","latitude":61.527841464666,"longitude":23.667546997993},{"code":2587,"name":"Sarankulmankatu 14","latitude":61.466739623439,"longitude":23.760670540633},{"code":1056,"name":"Viholankuja","latitude":61.53049068057,"longitude":23.665325161765},{"code":2586,"name":"Rukkamäki","latitude":61.459274153584,"longitude":23.745905309196},{"code":79,"name":"Hämeenpuisto 26","latitude":61.496312847828,"longitude":23.751880277466},{"code":3629,"name":"Muroleenkatu","latitude":61.45283221863,"longitude":23.836875523879},{"code":77,"name":"Pyynikin uimahalli","latitude":61.498025584262,"longitude":23.746495883205},{"code":76,"name":"Pyynikin uimahalli","latitude":61.498050656874,"longitude":23.746793948638},{"code":3627,"name":"Kanjoninkatu 5","latitude":61.457930742076,"longitude":23.844109286779},{"code":2582,"name":"Kenkätie 2","latitude":61.469397681123,"longitude":23.719012651354},{"code":2580,"name":"Peltolammin koulu","latitude":61.454379731923,"longitude":23.747054230773},{"code":4563,"name":"Mäentakusenkatu","latitude":61.496473317546,"longitude":23.891989160099},{"code":3624,"name":"Muroleenkatu","latitude":61.452753594669,"longitude":23.836583270963},{"code":3625,"name":"Hervannan jäähalli","latitude":61.456213628417,"longitude":23.836682594606},{"code":3622,"name":"Hervannan jäähalli","latitude":61.456325305618,"longitude":23.836464822667},{"code":4560,"name":"Ali-huikkaantie 2","latitude":61.493716158874,"longitude":23.838508955905},{"code":4556,"name":"Ristinarkuntie","latitude":61.489189949488,"longitude":23.855594644623},{"code":4553,"name":"Orimuskatu","latitude":61.484674684734,"longitude":23.928911160629},{"code":4559,"name":"Aitolahdentie 27","latitude":61.49136976334,"longitude":23.879309905749},{"code":4557,"name":"Vehnämyllynkatu","latitude":61.487593386625,"longitude":23.854516033461},{"code":4558,"name":"Vehnämyllynkatu","latitude":61.486946379696,"longitude":23.854111766969},{"code":2576,"name":"Hatanpään sairaala","latitude":61.485300292946,"longitude":23.757105466984},{"code":80,"name":"Hämeenpuisto 31","latitude":61.496570348521,"longitude":23.752886946084},{"code":2579,"name":"Peltolammin koulu","latitude":61.454254738161,"longitude":23.747461360242},{"code":2577,"name":"Rukkamäentie 15","latitude":61.451705415319,"longitude":23.747145577514},{"code":83,"name":"Hämeenpuisto 10","latitude":61.500929550802,"longitude":23.750383448203},{"code":2578,"name":"Rukkamäentie 15","latitude":61.451489507037,"longitude":23.746755268957},{"code":3615,"name":"Etelä-Hervanta","latitude":61.444500342977,"longitude":23.872350513442},{"code":5600,"name":"Teisko kko th","latitude":61.678013802026,"longitude":23.834575908891},{"code":66,"name":"Hämeenpuisto 17","latitude":61.49970746184,"longitude":23.751864239729},{"code":3616,"name":"Näyttämönkatu","latitude":61.442529297145,"longitude":23.863581719834},{"code":65,"name":"Mariankatu","latitude":61.496970651473,"longitude":23.744820911644},{"code":3618,"name":"Lavastajanpolku","latitude":61.441497287154,"longitude":23.867905924557},{"code":5410,"name":"Aitolahti kko","latitude":61.545350686082,"longitude":23.891767101178},{"code":69,"name":"Kauppakatu","latitude":61.498244691389,"longitude":23.754553956027},{"code":2572,"name":"Toivionkatu 3","latitude":61.461402040377,"longitude":23.724152949024},{"code":2571,"name":"Sarankulmankatu 25","latitude":61.459526778906,"longitude":23.746704788406},{"code":3610,"name":"Insinöörinkatu 60","latitude":61.446848767421,"longitude":23.853447987571},{"code":3611,"name":"Insinöörinkatu 41","latitude":61.446694089693,"longitude":23.854138974094},{"code":4550,"name":"Tilkankatu","latitude":61.490457138468,"longitude":23.922892689737},{"code":3612,"name":"Insinöörinkatu 82","latitude":61.444386117852,"longitude":23.856866754201},{"code":3613,"name":"Insinöörinkatu 55","latitude":61.444289611337,"longitude":23.856576344953},{"code":4552,"name":"Orimuskatu","latitude":61.484538485196,"longitude":23.92924389231},{"code":4551,"name":"Raudikonkatu","latitude":61.490919758388,"longitude":23.922302161872},{"code":3614,"name":"Länsi-Hervanta","latitude":61.447993884565,"longitude":23.834664538463},{"code":4542,"name":"Mikkola","latitude":61.484057885259,"longitude":23.906019492148},{"code":4543,"name":"Mikkola","latitude":61.484907477208,"longitude":23.905071046503},{"code":4544,"name":"Vestonkatu 24","latitude":61.482384277588,"longitude":23.91300355056},{"code":5409,"name":"Laalahti","latitude":61.547947686803,"longitude":23.905265750834},{"code":4545,"name":"Vestonkatu 11","latitude":61.482715111855,"longitude":23.911355501696},{"code":5408,"name":"Laalahti","latitude":61.54776038141,"longitude":23.904531553703},{"code":4546,"name":"Vestonkatu","latitude":61.481631899593,"longitude":23.92023377368},{"code":4547,"name":"Vestonkatu 35","latitude":61.481964042182,"longitude":23.919036493868},{"code":5403,"name":"Jokivalkamantie","latitude":61.554255655746,"longitude":23.928074449256},{"code":5402,"name":"Jokivalkamantie","latitude":61.554266908771,"longitude":23.927376820718},{"code":5401,"name":"Sorilan koulu","latitude":61.554879184165,"longitude":23.931439001461},{"code":70,"name":"Aleksis Kiven katu","latitude":61.498915237868,"longitude":23.75970854181},{"code":5400,"name":"Sorilan koulu","latitude":61.554628045677,"longitude":23.93065430758},{"code":2565,"name":"Ojatie","latitude":61.455746101402,"longitude":23.723883962767},{"code":5407,"name":"Tervasuontie","latitude":61.551312232831,"longitude":23.910671635482},{"code":2566,"name":"Ojatie","latitude":61.456064571518,"longitude":23.723681607234},{"code":72,"name":"Satakunnankatu 23","latitude":61.500226888776,"longitude":23.754817071019},{"code":5406,"name":"Tervasuontie","latitude":61.551264444405,"longitude":23.910544632897},{"code":74,"name":"Amuri","latitude":61.501382575208,"longitude":23.745656223015},{"code":5405,"name":"Hirsimoisio","latitude":61.552481328924,"longitude":23.915506068327},{"code":2568,"name":"Ruotutie 3","latitude":61.458938404487,"longitude":23.719193918493},{"code":75,"name":"Amuri","latitude":61.501591766177,"longitude":23.745390017234},{"code":2569,"name":"Hatanpään puistokuja","latitude":61.483567158432,"longitude":23.760892485999},{"code":5404,"name":"Hirsimoisio","latitude":61.552702098011,"longitude":23.917724243541},{"code":2561,"name":"Ruotutie 8","latitude":61.458688455544,"longitude":23.719257783084},{"code":3608,"name":"Sonninottanlahti","latitude":61.440666526314,"longitude":23.843998885177},{"code":59,"name":"Mustanlahdenkatu","latitude":61.499912280835,"longitude":23.749531207239},{"code":58,"name":"Mustanlahdenkatu","latitude":61.500081604091,"longitude":23.749475924353},{"code":3606,"name":"Arkkitehdinkatu 3","latitude":61.441949609165,"longitude":23.857918831268},{"code":57,"name":"Särkänniemi","latitude":61.502546828621,"longitude":23.744387914972},{"code":3607,"name":"Lavastajanpolku","latitude":61.441734027702,"longitude":23.869607877506},{"code":56,"name":"Särkänniemi","latitude":61.503158726463,"longitude":23.745940358469},{"code":3605,"name":"Arkkitehdinkatu 4","latitude":61.442150618968,"longitude":23.858067428175},{"code":4541,"name":"Leinolankatu 95","latitude":61.486883631673,"longitude":23.899558604426},{"code":3602,"name":"Arkkitehdinkatu 17","latitude":61.440592292985,"longitude":23.846219767618},{"code":3603,"name":"Arkkitehdinkatu 14","latitude":61.442072364628,"longitude":23.851960175218},{"code":3600,"name":"Suolijärvi","latitude":61.44500048506,"longitude":23.838026203},{"code":3601,"name":"Arkkitehdinkatu 36","latitude":61.440970633154,"longitude":23.847044362293},{"code":4537,"name":"Linnainmaankatu","latitude":61.488467644803,"longitude":23.889463295409},{"code":4538,"name":"Leinolankatu 72","latitude":61.487998096469,"longitude":23.894863997518},{"code":1697,"name":"Ikurintie 25","latitude":61.505743215842,"longitude":23.592971325324},{"code":4536,"name":"Kotipellonkatu","latitude":61.488348125786,"longitude":23.888949223671},{"code":4533,"name":"Jussilankulma","latitude":61.489284229405,"longitude":23.883539190719},{"code":1694,"name":"Kauppamiehenkatu","latitude":61.510618023664,"longitude":23.605467110609},{"code":4534,"name":"Leinolankatu 18","latitude":61.489237044963,"longitude":23.881477439808},{"code":1693,"name":"Kauppamiehenkatu","latitude":61.510595906542,"longitude":23.605300311075},{"code":4531,"name":"Paloasema","latitude":61.489763294647,"longitude":23.876615358309},{"code":1695,"name":"Ikurintie 47","latitude":61.507707667015,"longitude":23.593583385573},{"code":4532,"name":"Paloasema","latitude":61.490425742459,"longitude":23.878089439965},{"code":2557,"name":"Toivionkatu","latitude":61.462541702352,"longitude":23.718889700632},{"code":2558,"name":"Valmetinkatu","latitude":61.470755480956,"longitude":23.725047200454},{"code":64,"name":"Mariankatu","latitude":61.496847017133,"longitude":23.74453316572},{"code":2555,"name":"Patamäenkatu 5","latitude":61.459057374786,"longitude":23.743975921141},{"code":61,"name":"Sotkankatu","latitude":61.499317927645,"longitude":23.741568405852},{"code":2556,"name":"Hatanpään sairaala","latitude":61.484347017075,"longitude":23.757430179799},{"code":2553,"name":"Nuutisarankatu 35","latitude":61.461366453844,"longitude":23.726033790133},{"code":2554,"name":"Pirkkahalli","latitude":61.463516891408,"longitude":23.73329798513},{"code":60,"name":"Sotkankatu","latitude":61.499536979767,"longitude":23.741714602165},{"code":4539,"name":"Leinolankatu 69","latitude":61.488240444518,"longitude":23.894069641393},{"code":2551,"name":"Pöytäsarankatu","latitude":61.458674641529,"longitude":23.729882692308},{"code":2552,"name":"Nuutisarankatu 22","latitude":61.461559129917,"longitude":23.726576669284},{"code":48,"name":"Satamakatu 16","latitude":61.494497847756,"longitude":23.748837666663},{"code":47,"name":"Pyynikin koulu","latitude":61.493888890243,"longitude":23.752678136987},{"code":2550,"name":"Pöytäsarankatu","latitude":61.458961415645,"longitude":23.730603374537},{"code":49,"name":"Satamakatu","latitude":61.494271211773,"longitude":23.74837278403},{"code":44,"name":"Laukontori","latitude":61.495323903398,"longitude":23.760138817765},{"code":43,"name":"Laukontori","latitude":61.495236114906,"longitude":23.760223124587},{"code":46,"name":"Satamakatu 8","latitude":61.494910979287,"longitude":23.754863976267},{"code":45,"name":"Nalkalantori","latitude":61.493455497671,"longitude":23.755598207149},{"code":4530,"name":"Kässälä","latitude":61.488720200332,"longitude":23.864828480888},{"code":4525,"name":"Takahuhdin koulu","latitude":61.491397906945,"longitude":23.848927424693},{"code":4526,"name":"Takahuhdin koulu","latitude":61.490917246316,"longitude":23.849502118259},{"code":4527,"name":"Ristinarkku","latitude":61.489114247282,"longitude":23.85776272965},{"code":2548,"name":"Keskuojankatu","latitude":61.457196209644,"longitude":23.733021943209},{"code":4521,"name":"Sammon valtatie","latitude":61.493260660647,"longitude":23.837070885076},{"code":2549,"name":"Keskuojanpolku","latitude":61.4567465191,"longitude":23.73374470909},{"code":4522,"name":"Sammon vt 10","latitude":61.492961776882,"longitude":23.838510434802},{"code":2544,"name":"Patamäenkatu 12","latitude":61.456763797082,"longitude":23.739335797097},{"code":50,"name":"Hämeenpuisto 45","latitude":61.493700671419,"longitude":23.75382519163},{"code":2545,"name":"Patamäenkatu 9","latitude":61.457251627976,"longitude":23.740579769072},{"code":51,"name":"Eteläpuisto","latitude":61.492756127633,"longitude":23.756779712998},{"code":52,"name":"Pikkupalatsi","latitude":61.501384177817,"longitude":23.751369684437},{"code":53,"name":"Hämeenpuisto 14","latitude":61.499779633604,"longitude":23.750747873213},{"code":2540,"name":"Sarankulmankatu 20","latitude":61.460930958554,"longitude":23.750593883157},{"code":4529,"name":"Kässälä","latitude":61.488837905399,"longitude":23.862919235008},{"code":2541,"name":"Sarankulmankatu","latitude":61.460792081992,"longitude":23.750796055044},{"code":2542,"name":"Patamäenkatu 2","latitude":61.459144279776,"longitude":23.743854223777},{"code":1002,"name":"Santalahti","latitude":61.50232427522,"longitude":23.72572840712},{"code":1003,"name":"Santalahti","latitude":61.501885681702,"longitude":23.725417450534},{"code":1000,"name":"Onkiniemi","latitude":61.502350486433,"longitude":23.738431498531},{"code":1001,"name":"Onkiniemi","latitude":61.502079022213,"longitude":23.738347171579},{"code":1006,"name":"Rantatie","latitude":61.505398211302,"longitude":23.717979878962},{"code":1007,"name":"Rantatie","latitude":61.504647226266,"longitude":23.719243305247},{"code":5021,"name":"Rauhaniemi","latitude":61.512669546515,"longitude":23.784898528298},{"code":1009,"name":"Venesatama","latitude":61.50629803929,"longitude":23.713204192804},{"code":5024,"name":"Veljeskoti","latitude":61.507748543126,"longitude":23.791027833779},{"code":5025,"name":"Veljeskoti","latitude":61.507657880975,"longitude":23.790228845106},{"code":5023,"name":"Kaupin sairaala","latitude":61.507137457568,"longitude":23.787199688832},{"code":5016,"name":"Kaupin sairaala","latitude":61.508946272577,"longitude":23.787351265229},{"code":1010,"name":"Lielahden asema","latitude":61.510680716633,"longitude":23.686852126694},{"code":1900,"name":"Kaarila","latitude":61.501768604384,"longitude":23.65697591173},{"code":5030,"name":"Petsamo","latitude":61.504998808782,"longitude":23.800897694853},{"code":4588,"name":"Piettasenristi","latitude":61.494308067955,"longitude":23.90892765637},{"code":5027,"name":"Koljontie 29","latitude":61.508369069467,"longitude":23.793351223878},{"code":5026,"name":"Koljontie 62","latitude":61.507628220673,"longitude":23.801191221599},{"code":5029,"name":"Koljontie 31","latitude":61.507929208641,"longitude":23.800239174229},{"code":5028,"name":"Koljontie 74","latitude":61.506820733471,"longitude":23.803905938108},{"code":5417,"name":"Pättinniemi th","latitude":61.54113279285,"longitude":23.86795203638},{"code":5418,"name":"Lampu","latitude":61.538385468939,"longitude":23.854719030808},{"code":5415,"name":"Ruokonen","latitude":61.542365500294,"longitude":23.879024712554},{"code":5416,"name":"Pättinniemi th","latitude":61.541211544941,"longitude":23.869035526143},{"code":5413,"name":"Ruokosenraitti","latitude":61.543844005415,"longitude":23.885952185071},{"code":5414,"name":"Ruokonen","latitude":61.542152005135,"longitude":23.877935876647},{"code":5411,"name":"Aitolahti kko","latitude":61.544975119416,"longitude":23.890261471535},{"code":5412,"name":"Ruokosenraitti","latitude":61.543606678732,"longitude":23.884997400521},{"code":4579,"name":"Pikkupiiankatu","latitude":61.497988641705,"longitude":23.89818934365},{"code":5042,"name":"Ali-Huikkaantie","latitude":61.50566127341,"longitude":23.835039647456},{"code":4576,"name":"Piettasenkatu 28","latitude":61.497308747893,"longitude":23.905811013655},{"code":5043,"name":"Tenniskeskus","latitude":61.505592829711,"longitude":23.844482439748},{"code":4575,"name":"Piettasenristi","latitude":61.493933425775,"longitude":23.909040005048},{"code":5040,"name":"Hoitokoti","latitude":61.504675270127,"longitude":23.826625352276},